id,name,dedicatee,type,location,city,country,latitude,longitude,orientation,compass,date,startdateearly,startdatelate,century,enddate,preceded,succeeded,sex,dedicationday,deitytype,culture,style,extant,source,meetings,note,vici,pleiades,dare,arachne,livius,wikipedia,wikidata,digitalromanforum,digitalesforumromanum,trismegistos,ads,cona,topostext,url,checked
"1000001",Temple of Aesculapius,Aesculapius,temple,Tiber Island,Rome,IT,41.890278,12.478333,,,"-291","-291",,"-3",,,,M,January 1,hero,Roman,,,Ziolkowski,,,"23444",,,,,,,,,,,,,,
"1000002",Temple of Apollo Palatinus,Apollo,temple,Palatine Hill,Rome,IT,41.888854,12.485741,"227",SW,"-28","-28",,"-1",,,,M,,god,Roman,,,"Blake, Stamper",,,,,,"8606",,,,,,,,,,,
"1000003",Temple of Apollo Sosianus/Medicus,Apollo,temple,Circus Flaminius,Rome,IT,41.8923136,12.4795912,"180",S,"-431","-431",,"-5",,,,M,September 23,god,Roman,,,Stamper,senate,"vici.org; coords modified","15038","740034026",,"5665",,,,,,,,,419125SApo,,
"1000004",Temple of Bellona,Bellona,temple,Circus Flaminius,Rome,IT,41.89238,12.47989,"180",S,"-296","-296",,"-3",,,,F,June 3,god,Roman,,,Ziolkowski,senate,,,,,"3467477",,,,,,,,,,,
"1000005",Temple of Bona Dea,Bona Dea,temple,Lesser Aventine,Rome,IT,41.880581,12.48979,,,,"-123",,"-2",,,,F,May 1,god,Roman,,,Blake/Ziolkowski,,,,,,,,,,,,,,,,,
"1000007",Temple of Castor(es),Castor(es),temple,Forum,Rome,IT,41.891773,12.485755,"24",NE,"-484","-484",,"-5",,,,M,27 January/15 July,hero,Roman,,,blake,senate,Vici.org,"15011",,,"5807",,,Q380530,,,,,,419125SCas,,
"1000008",Temple of Castor and Pollux,"Castor, Pollux",temple,Circus Flaminius,Rome,IT,,,"30",NE,-179-91,"-179","-91","-2",,,,M,,hero,Roman,,,Coarelli,,,,,,"4052753",,,,,,,,,,,
"1000009",Temple of Ceres and Faustina,"Ceres, Faustina",temple,,Rome,IT,41.857844,12.524306,,,,,,,,,,F,,"god, family",Roman,,,,,"Vici.org, DARE",,"422889","22917",,,,,,,,,,,,
"1000010","Temple of Ceres, Liber, and Libera","Ceres, Liber, Libera",temple,Aventine,Rome,IT,,,,,"-493","-493",,"-5",,,,M/F,,god,Roman,,,,,,,,,,,,,,,,,,,,
"1000011",Temple of Cessati Spiriti,,temple,,Rome,IT,41.862522,12.533184,,,,,,,,,,,,,Roman,,,,,DARE,,"422892",,,,,,,,,,,,,
"1000012",Temple of the Divine Claudius,Claudius,temple,Caelian Hill,Rome,IT,41.887594,12.493367,,,40-60,"40","60","1",,,,M,,emperor,Roman,,,,,,,,,"6228",,,,,,,,,,,
"1000013",Temple of Concord,Concord,temple,Forum,Rome,IT,41.89293,12.484245,"123",SE,"-121","-121",,"-2",,,,F,22 July/16 January,concept,Roman,,,Blake,senate,,,,,"5742",,,,,,,,,419125SCon,,
"1000014",Temple of Cybele/Magna Mater,Cybele/Magna Mater,temple,Palatine Hill,Rome,IT,41.889554,12.484984,"203",SW,"-191","-191",,"-2",,,,F,,god,Roman,,,Stamper,senate,Vici.org,"17956",,,"9110",,,Q383609,,,,,,,,
"1000015",Temple of Dea Dia,Dea Dia,temple,,Rome,IT,41.83614,12.44195,,,,,,,,,,F,,god,Roman,,,,,DARE,,"422916","37153",,,,,,,,,,,,
"1000016",Temple of Diana,Diana,temple,Aventine,Rome,IT,41.882828,12.483194,,,-499-400,"-499","-400","-5",,,,F,August 13,god,Roman,,,,,,,,,,,,,,,,,,,,
"1000017",Temple of the Divine Antoninus and the Divine Faustina,"Antoninus, Faustina",temple,Forum,Rome,IT,41.892139,12.486689,"217",SW,"161","161",,"2",,,,M/F,,"emperor, family",Roman,,,Blake,,Vici.org,"15009",,,"5645",,Temple_of_Antoninus_and_Faustina,Q752555,,,,,,419125SFas,,
"1000018",Temple of the Divine Augustus,Augustus,temple,,Rome,IT,41.891616,12.484471,,,,,,,,,,M,,emperor,Roman,,,Blake,,,,,,"5743",,,,,,,,,,,
"1000019",Temple of the Divine Julius,Julius,temple,Forum,Rome,IT,41.891943,12.486246,"300",NW,"-29","-29",,"-1",,,,M,August 18,emperor,Roman,,,Stamper,,,"15048",,,"5744",,,Q1133288,,,,,,419125SJul,,
"1000020",Temple of the Divine Romulus,Romulus,temple,Forum,Rome,IT,41.891846,12.487166,"205",SW,,,,,,,,M,,hero,Roman,,,,,Vici.org,"15044",,,"10545",,Temple_of_Romulus,,,,,,,,,
"1000021",Temple of the Divine Trajan,Trajan,temple,Forum of Trajan,Rome,IT,41.895471,12.484645,,,"128","128",,"2",,,,M,,emperor,Roman,,,Stamper,,,,,,,,,,,,,,,,,
"1000022",Temple of Elagabal,Elagabal,temple,,Rome,IT,41.889603,12.488894,,,,,,,,,,M,,emperor,Roman,,,,,Vici.org,"11503",,,,,,,,,,,,,,
"1000023",Temple of Feronia,Feronia,temple,Campus Martius,Rome,IT,41.895163,12.476723,"90",E,"-290","-290",,"-3",,,,F,November 13,god,Roman,,,Stamper/Ziolkowski,,Pleiades: Temple C,"39266","967215409",,"5865",,,,,,,,,,,
"1000024",Temple of Fides,Fides,temple,Capitoline,Rome,IT,41.8914,12.4812,,,"-254","-254",,"-3",,,,F,October 1,concept,Roman,,,Ziolkowski,senate,,,,,,,Temple_of_Fides,Q3983246,,,,,,,,
"1000025",Temple of Flora,Flora,temple,Circus Maximus,Rome,IT,,,,,"-240","-240",,"-3",,,,F,April 28,nature,Roman,,,,,,,,,,,Temple_of_Flora,Q3983248,,,,,,,,
"1000026",Temple of Flora,Flora,temple,Quirinal,Rome,IT,,,,,-292-219,"-292","-219","-3",,,,F,May 3,nature,Roman,,,,,,,,,,,,,,,,,,,,
"1000027",Temple of Fons/Fontus,Fons/Fontus,temple,extra portam fontinalem,Rome,IT,,,,,"-231","-231",,"-3",,,,M,October 13,nature,Roman,,,,,,,,,,,,,,,,,,,,
"1000028",Temple of Fortis Fortuna,Fortis Fortuna,temple,Right bank of Tiber,Rome,IT,,,,,,,,,,,,F,,concept,Roman,,,,,Vici.org,,"422925",,,,,,,,,,,,,
"1000029",Temple of Fortuna Huiusce Diei,Fortuna,temple,Campus Martius,Rome,IT,41.895387,12.476839,"90",E,1-99,"1","99","1",,,,F,,concept,Roman,,yes,Stamper,,Pleiades: Temple B,"17946","967215409",,"6515",,,,,,,,,,,
"1000030",Temple of Fortuna,Fortuna,temple,Forum Boarium,Rome,IT,41.890556,12.480833,"180",S,"-396","-396",,"-4",,,,F,,concept,Roman,,,Platner and Ashby,,,,,,,,,,,,,,,,,
"1000031",Temple of Fortuna Muliebris,Fortuna,temple,,Rome,IT,41.843745,12.555806,,,,,,,,,,F,,concept,Roman,,,,,DARE,,,"37154",,,,,,,,,,,,
"1000032",Temple of the Divine Hadrian,Hadrian,temple,Campus Martius,Rome,IT,41.899876,12.479621,"90",E,"145","145",,"2",,,,M,,emperor,Roman,,,Blake,,Vici.org,"15032",,,"5651",,Temple_of_Hadrian,,,,,,,,,
"1000033",Temple of Hercules Magnus Custos,Hercules,temple,Circus Flaminius,Rome,IT,,,,,"-220","-220",,"-3",,,,M,June 4,hero,Roman,,,Ziolkowski,,Pleiades,,,,,,,,,,,,,,,
"1000034",Temple of Hercules Musarum,Hercules,temple,Circus Flaminius,Rome,IT,41.8931188,12.477733,"208",SW,"-187","-187",,"-2",,,,M,June 30,hero,Roman,,,Arachne,,,,,,"3467458",,,,,,,,,,,
"1000035",Temple of Hercules Victor,Hercules,temple,Caelian Hill,Rome,IT,,,,,"-145","-145",,"-2",,,,M,,hero,Roman,,,,,,,,,,,,,,,,,,,,
"1000036",Temple of Hercules Victor,Hercules,temple,,Tivoli,IT,,,,,-89-82,"-89","-82","-1",,,,M,,hero,Roman,,,Stamper,,,,,,,,,,,,,,,,,
"1000037",Temple of Hercules Victor/Invictus,Hercules,temple,Forum Boarium,Rome,IT,41.8887057,12.4806393,"93",E,,,,,,,,M,August 13,hero,Roman,,yes,,,,"15006","825969667",,"10771",,Temple_of_Hercules_Victor,,,,,,,,,
"1000038",Temple of Honos and Virtus,"Honor, Virtue",temple,ad Portam Capenam,Rome,IT,,,,,"-205","-205",,"-3",,"1000154",,F,July 17,concept,Roman,,,,senate,,,,,,,,,,,,,,,,
"1000039",Temple at Il Torraccio,,temple,,Rome,IT,41.994283,12.492366,,,,,,,,,,,,,Roman,,,,,DARE,,"3467477","37165",,,,,,,,,,,,
"1000040",Temple of Isis at via Labicana,Isis,temple,,Rome,IT,41.890049,12.501237,,,,,,,,,,F,,god,Roman,,,,,Pleiades,"19353",,,,,,Q16612725,,,,,,,,
"1000041",Temple of Isis/Serapis,Isis/Serapis,temple,Campus Martius,Rome,IT,41.897221,12.479167,,,,,,,,,,F,,god,Roman,,,Blake,,Pleiades,"17963",,,,,,Q2288275,,,,,,,,
"1000042",Temple of Janus,Janus,temple,Forum Holitorium,Rome,IT,41.891289,12.479947,"71",E,"-260","-260",,"-3",,,,M,August 17,god,Roman,,,,,,,,,"10761",,,,,,,,,,,
"1000043",Temple of Juno Curritis,Juno,temple,Campus Martius,Rome,IT,41.894862,12.476906,,,-292-219,"-292","-219","-3",,,,F,October 7,god,Roman,,,Ziolkowski,,,,,,,,,,,,,,,,,
"1000044",Temple of Juno Lucina,Juno,temple,Esquiline Hill,Rome,IT,,,,,"-375","-375",,"-4",,,,F,March 1,god,Roman,,,Ziolkowski,,,,,,,,,,,,,,,,,
"1000045",Temple of Juno Moneta,Juno,temple,Capitoline Hill,Rome,IT,41.894009,12.483497,,,"-344","-344",,"-4",,,,F,June 1,god,Roman,,,,,,,,,"3910432",,,,,,,,,419125SJuM,,
"1000046",Temple of Juno Regina,Juno,temple,Aventine Hill,Rome,IT,41.88444,12.47972,,,"-392","-392",,"-4",,,,F,,god,Roman,,,Ziolkowski,,,,,,,,,,,,,,,,,
"1000047",Temple of Juno Regina,Juno,temple,Circus Flaminius,Rome,IT,41.893141,12.478602,"208",SW,"-179","-179",,"-2",,,,F,December 23,god,Roman,,,,,,,,,"3467454",,,,,,,,,,,
"1000048",Temple of Juno Sospita,Juno,temple,Forum Holitorium,Rome,IT,41.891093,12.479937,"71",E,-197-194,"-197","-194","-2",,,,F,February 1,god,Roman,,,,,,,,,,,,,,,,,,419125SJuS,,
"1000049",Temple of Jupiter,Jupiter,temple,,Rome,IT,41.840026,12.536854,,,,,,,,,,M,,god,Roman,,,,,DARE,,,"37156",,,,,,,,,,,,
"1000050",Capitolium,"Jupiter, Juno, Minerva",temple,,Jerusalem,IL,31.776306,35.235619,"349",N,"130","130",,"2",,,,M/F,,god,Roman,,no,,,,,,,,,,,,,,,,,,
"1000051",Temple of Jupiter,Jupiter,temple,,Damascus,SY,33.510833,36.300833,,,"14","14",,"1",,,,M,,god,Roman,,,,,,,,,,,,,,,,,,,,
"1000052",Temple of Jupiter,Jupiter,temple,,Yarbrud,SY,33.966667,36.666667,,,,,,,,,,M,,god,Roman,,,,,,,,,,,,,,,,,,,,
"1000053",Temple of Jupiter,Jupiter,temple,,Baalbek,LB,34.006839,36.203397,,,"135","135",,"2",,,,M,,god,Roman,,,,,,"16415",,,,,,Q21079381,,,,,,,,
"1000054",Temple of Jupiter Anxur,Jupiter,temple,,Terracina,IT,41.290817,13.260113,"175",S,,,,,,,,M,,god,Roman,,,,,Coord from Google maps,,"433143",,,,,,,,,,,413133SJAn,,
"1000055",Temple of Jupiter Conservator,Jupiter,temple,Capitoline Hill,Rome,IT,,,,,,,,,,,,M,,god,Roman,,,Stamper,,,,,,,,,,,,,,,,,
"1000056",Temple of Jupiter Custos,Jupiter,temple,Capitoline Hill,Rome,IT,41.891825,12.481892,,,,,,,,,,M,,god,Roman,,,,,,,,,,,,,,,,,,,,
"1000057",Temple of Jupiter Dolichenus,Jupiter,temple,Aventine Hill,Rome,IT,41.88319,12.4804,,,,,,,,,,M,,god,Roman,,,Blake,,Location from Arachne,,,,"6074",,,,,,,,,,,
"1000058",Temple of Jupiter Feretrius,Jupiter,temple,Capitoline Hill,Rome,IT,,,,,-752-751,"-752","-751","-8",,,,M,,god,Roman,,,,,,,,,,,,,,,,,,,,
"1000059",Temple of Jupiter Heliopolitanus,Jupiter,temple,Janiculum,Rome,IT,,,,,Late 1st Century CE,"75","100","1",,,,M,November 29,god,Roman,,,Blake,,,,,,,,,,,,,,,,,
"1000060",Temple of Jupiter Invictus,Jupiter,temple,Palatine Hill,Rome,IT,,,,,-180-167,"-180","-167","-2",,,,M,,god,Roman,,,Ziolkowski,,,,,,,,,,,,,,,,,
"1000061",Temple of Jupiter Libertas,Jupiter,temple,Aventine Hill,Rome,IT,,,,,"-246","-246",,"-3",,,,M,April 13,god,Roman,,,Ziolkowski,,,,,,,,,,,,,,,,,
"1000062",Temple of Jupiter Capitolinus/Optimus Maximus,Jupiter,temple,Capitoline Hill,Rome,IT,41.892222,12.481667,"152",SE,"-509","-509",,"-6",,,,M,September 13,god,Roman,,,Blake,senate,,"17971","871801169",,"3910430",,,Q586468,,,,,,419125SJCa,,
"1000063",Temple of Jupiter Patulaeius,Jupiter,temple,,Ostia,IT,,,,,-299-200,"-299","-200","-3",,,,M,,god,Roman,,,,,,,,,,,,,,,,,,,,
"1000064",Temple of Jupiter,Jupiter,temple,,Pompeii,IT,40.7499,14.4845,,,mid-2nd century BC,"-175","-125","-2",,,,M,,god,Roman,,,,,,,,,,,,,,,,,,,,
"1000065",Temple of Jupiter Sospita,Jupiter,temple,,,,,,,,,,,,,,,M,,god,Roman,,,Stamper,,,,,,,,,,,,,,,,,
"1000066",Temple of Jupiter Stator,Jupiter,temple,Campus Martius,Rome,IT,41.890487,12.488793,,,"-294","-294",,"-3",,,,M,January 27,god,Roman,,,,senate,Tenative coordinates,,,,,,,,,,,,,,,
"1000067",Temple of Jupiter Stator,Jupiter,temple,"Porticus Metelli, Circus Flaminius",Rome,IT,41.892897,12.479021,"208",SW,"-146","-146",,"-2",,,,M,,god,Roman,,,,,,,,,,,,,,,,,,,,
"1000068",Temple of Jupiter Tonans,Jupiter,temple,Capitoline Hill,Rome,IT,,,,,"-22","-22",,"-1",,,,M,September 1,god,Roman,,,,,,,,,,,,,,,,,,,,
"1000069",Temple of Jupiter Victor,Jupiter,temple,Quirinal Hill,Rome,IT,,,,,"-295","-295",,"-3",,,,M,,god,Roman,,,Blake,,,,,,,,,,,,,,,,,
"1000070",Temple of Jupiter/Baalshamin,"Jupiter, Baalshamin",temple,,Kedesh,IL,33.112906,35.531175,,,,,,,,,,M,,god,Roman,,,,,,,,,,,,,,,,,,,,
"1000071",Temple of Juturna,Juturna,temple,Campus Martius,Rome,IT,41.895664,12.476876,"90",E,-299-200,"-299","-200","-3",,,,F,January 11,god,Roman,,,Ziolkowski,,Pleiades: Temple A,"17946","967215409",,"5864",,,,,,,,,,,
"1000072",Temple of Juventas,Juventas,temple,Circus Maximus,Rome,IT,,,,,"-193","-193",,"-2",,,,F,,concept,Roman,,,,,,,,,,,,,,,,,,,,
"1000073",Temple of the Lares,Lares,temple,in summa Sacra Via,Rome,IT,,,,,-292-219,"-292","-219","-3",,,,M,June 27,god,Roman,,,,,,,,,,,,,,,,,,,,
"1000074",Temple of the Lares Permarini,Lares Permarini,temple,Campus Martius,Rome,IT,41.894983,12.476957,"90",E,"-179","-179",,"-2",,,,M,,god,Roman,,,,,Pleiades: Temple D,"17946","967215409",,"6516",,,,,,,,,,,
"1000075",Temple of Luna,Luna,temple,Aventine Hill,Rome,IT,,,,,-292-219,"-292","-219","-3",,,,F,March 31,nature,Roman,,,,,,,,,,,,,,,,,,,,
"1000076",Temple of Mars,Mars,temple,Circus Flaminius,Rome,IT,,,,,"-138","-138",,"-2",,,,M,,god,Roman,,,,,,,,,,,Temple_of_Mars,,,,,,,,,
"1000077",Temple of Mars,Mars,temple,North Via Appia,Rome,IT,,,,,"-388","-388",,"-4",,,,M,June 1,god,Roman,,,,,,,,,,,,,,,,,,,,
"1000078",Temple of Mars Ultor,Mars,temple,Forum of Augustus,Rome,IT,41.894444,12.486944,"233",SW,"-2","-2",,"-1",,,,M,,god,Roman,,,Stamper,,,,,,"5747",,,,,,"43987",,,,,
"1000079",Temple of Mater Matuta,Mater Matuta,temple,Forum Boarium,Rome,IT,41.890556,12.480833,"180",S,"-368","-368",,"-4",,,,F,,god,Roman,,,Stamper,,,,,,,,,,,,,,,,,
"1000080",Temple of Matidia,Matidia,temple,Campus Martius,Rome,IT,41.899964,12.478081,,,"119","119",,"2",,,,F,,family,Roman,,,Stamper,,,,,,,,,,,,,,,,,
"1000081",Mausoleum of Romulus,,tomb,,Rome,IT,41.8550631,12.5181785,,,early 4th century CE,,,"4",,,,,,,Roman,,,,,DARE,,,"23842",,,,,,,,,,,,
"1000082",Temple of Mercury,Mercury,temple,Aventine Hill,Rome,IT,,,,,"-495","-495",,"-5",,,,M,,god,Roman,,,,,,,,,,,,,,,,,,,,
"1000083",Temple of Minerva,Minerva,temple,Aventine Hill,Rome,IT,,,,,-269-260,"-269","-260","-3",,,,F,,god,Roman,,,,,Vici.org,,,,,,,,,,,,,,,
"1000084",Temple of Minerva Medica,Minerva,temple,Esquiline Hill,Rome,IT,41.893845,12.511867,,,-399-300,"-399","-300","-4",,,,F,,god,Roman,,,,,Pleiades,"7929","540898685",,,,,Q1411575,,,,,,,,
"1000085",Temple of Minerva,Minerva,temple,Forum of Nerva,Rome,IT,41.893664,12.487089,"228",SW,,,,,,,,F,,god,Roman,,,Arachne,,,,,,"8405",,,,,,,,,,,
"1000086",Mithraeum Barberini,Mithras,mithraeum,,Rome,IT,41.902964,12.4891,,,,,,,,,,,,,Roman,,,,,DARE,,,"45672",,,,,,,,,,,,
"1000087",Mithraeum of Orazio Muti,Mithras,mithraeum,,Rome,IT,41.89981,12.485662,,,,,,,,,,,,,Roman,,,,,DARE,,,"45673",,,,,,,,,,,,
"1000088",Mithraeum of San Clemente,Mithras,mithraeum,,Rome,IT,41.889675,12.497281,,,,,,,,,,,,,Roman,,,,,"Vici.org; DARE","23522",,"45666",,,,,,,,,,,,
"1000089",Mithraeum of Santa Prisca,Mithras,mithraeum,,Rome,IT,41.883213,12.483655,,,,,,,,,,,,,Roman,,,,,DARE,,,"45667",,,,,,,,,,,,
"1000090",Mithraeum of Santo Stefano Rotondo,Mithras,mithraeum,,Rome,IT,41.884655,12.496744,,,,,,,,,,,,,Roman,,,,,DARE,,,"45669",,,,,,,,,,,,
"1000091",Mithraeum of the Baths of Caracalla,Mithras,mithraeum,,Rome,IT,41.879922,12.493118,,,,,,,,,,,,,Roman,,,,,DARE,,,"45668",,,,,,,,,,,,
"1000092",Mithraeum of the Campidoglio,Mithras,mithraeum,,Rome,IT,41.89291,12.482628,,,,,,,,,,,,,Roman,,,,,DARE,,,"45675",,,,,,,,,,,,
"1000093",Mithraeum of the Circus Maximus,Mithras,mithraeum,,Rome,IT,41.888114,12.482856,,,,,,,,,,,,,Roman,,,,,DARE,,,"45670",,,,,,,,,,,,
"1000094",Mithraeum of the Crypta Balbi,Mithras,mithraeum,,Rome,IT,41.894242,12.479176,,,,,,,,,,,,,Roman,,,,,"DARE; coords updated",,,"45674",,,,,,,,,,,,
"1000095",Mithraeum of the Esquiline,Mithras,mithraeum,,Rome,IT,41.894894,12.501063,,,,,,,,,,,,,Roman,,,,,DARE,,,"45671",,,,,,,,,,,,
"1000096",Temple at Monte del Grano,,temple,,Rome,IT,41.865272,12.549292,,,,,,,,,,,,,Roman,,,,,,,"422973",,,,,,,,,,,,,
"1000097",Temple of Neptune,Neptune,temple,Circus Flaminius,Rome,IT,,,,,-257-228,"-257","-228","-3",,,,M,December 1,god,Roman,,,,,,,,,"3467478",,Temple_of_Neptune_(Rome),,,,,,,,,
"1000098",Nymphaeum of the Villa dei Quintili,Nymphs,temple,,Rome,IT,41.8279699,12.5480362,,,,,,,,,,F,,god,Roman,,,,,DARE,,,"23839",,,,,,,,,,,,
"1000099",Nymphaeum Septizodium,Nymphs,temple,Campus Martius,Rome,IT,41.885632,12.488719,,,,,,,,,,F,,god,Roman,,,,,Vici.org,"17962",,,,,,Q1234446,,,,,,,,
"1000100",Temple of the Nymphs,Nymphs,temple,,Rome,IT,41.895163,12.478714,,,,,,,,,,F,,god,Roman,,,,,,,,,"6079",,,,,,,,,,,
"1000101",Temple of Ops Opifera,Ops Opifera,temple,Capitoline Hill,Rome,IT,41.895163,12.478714,,,,,,,,,,F,August 23,concept,Roman,,,,,,,,,,,,,,,,,,,,
"1000102",Temple of Pales,Pales,temple,Palatine Hill,Rome,IT,,,,,"-267","-267",,"-3",,,,F,,god,Roman,,,,,,,,,,,,,,,,,,,,
"1000103",Pantheon,Pantheon,temple,Campus Martius,Rome,IT,41.89856,12.47685,"354",N,"126","126",,"2",,,,M/F,,god,Roman,,,,,Vici.org,"7853","128044615",,"5664",,"Pantheon,_Rome",Q99309,,,,,"700000158",419125SPan,,
"1000104",Temple of Pax,Peace,temple,,Rome,IT,41.8926,12.4876,,,"75","75",,"1",,,,F,,concept,Roman,,,,,,,,,,,,,,,,,,,,
"1000105",Temple of the Penates,Penates,temple,Velian Hill,Rome,IT,,,,,-292-219,"-292","-219","-3",,,,M,,god,Roman,,,,,,,,,"10557",,,,,,,,,,,
"1000106",Temple of Portunus,Portunus,temple,Forum Boarium,Rome,IT,41.889232,12.480883,"347",N,"-120","-120",,"-2",,,,M,,god,Roman,,,Stamper,,"Vici.org; DARE","11602","494660670","22924","5932",,Temple_of_Portunus,,,,,,,,,
"1000107",Temple of Quirinus,Quirinus,temple,Quirinal Hill,Rome,IT,,,,,"-293","-293",,"-3",,,,M,,god,Roman,,,,,,,,,,,,,,,,,,,,
"1000108",Temple of Robigo,Robigo,sanctuary,,Rome,IT,41.959271,12.447668,,,,,,,,,,F,,nature,Roman,,,,,DARE,,"423024","37158",,,,,,,,,,,,
"1000109",Temple of Salus,Salus,temple,Quirinal Hill,Rome,IT,,,,,"-303","-303",,"-4",,,,F,,concept,Roman,,,,,,,,,,,,,,,,,,,,
"1000110",Temple of Saturn,Saturn,temple,Forum,Rome,IT,41.892468,12.484181,"32",NE,"-498","-498",,"-5",,,,M,,god,Roman,,,,,Pleiades,"15012",,,"5644",,Temple_of_Saturn,Q746721,,saturntempel,,,,419125SSat,,
"1000111",Temple of Sol,Sol,temple,Campus Agrippae,Rome,IT,,,,,"-273","-273",,"-3",,,,M,,nature,Roman,,,,,,,,,,,,,,,,,,,,
"1000112",Temple of Sol and Luna,"Sol, Luna",temple,Circus Maximus,Rome,IT,,,,,-292-219,"-292","-219","-3",,,,M/F,August 28,nature,Roman,,,,,,,,,,,,,,,,,,,,
"1000113",Temple of Spes,Spes,temple,Forum Holitorium,Rome,IT,41.890962,12.480052,"71",E,-258-249,"-258","-249","-3",,,,F,,concept,Roman,,,,,,,,,"10760",,,,,,,,,,,
"1000114",Temple of Summanus,Summanus,temple,Circus Maximus,Rome,IT,,,,,-280-275,"-280","-275","-3",,,,M,,god,Roman,,,,,,,,,,,,,,,,,,,,
"1000115",Temple of Sybil,Sybil,temple,,Tivoli,IT,41.966809,12.800843,,,-150-125,"-150","-125","-2",,,,F,,god,Roman,,,Stamper,,Vici.org,,,,,,,,,,,,,,,
"1000116",Temple of Tellus,Tellus,temple,Esquiline Hill,Rome,IT,,,,,"-268","-268",,"-3",,,,F,,nature,Roman,,,,senate,,,,,,,,,,,,,,,,
"1000117",Temple of the Tempestates,Tempestates,temple,Porta Capena,Rome,IT,,,,,,,,,,,,F,December 23,nature,Roman,,,,,,,,,,,,,,,,,,,,
"1000118",Temple at S. Salvatore in Campo,,temple,Campus Martius,Rome,IT,41.893685,12.474003,"121",SE,,,,,,,,M,,nature,Roman,,,,,,,,,"3467479",,,,,,,,,,,
"1000119",Temple of Tiberinus,Tiberinus,temple,Tiber Island,Rome,IT,,,,,-292-219,"-292","-219","-3",,,,M,,nature,Roman,,,,,,,,,,,,,,,,,,,,
"1000120",Tomb of Cecilia Metella,,tomb,Via Appia,Rome,IT,41.852196,12.520981,,,,,,,,,,F,,,Roman,,,,,"Pleiades; vici.org",,"423064",,,,,,,,,,,,,
"1000121",Temple of Veiovis,Veiovis,temple,Inter duos lucos,Rome,IT,41.892776,12.483611,"220",SW,,,,,,,,M,March 7,god,Roman,,,,,Pleiades,"17964",,,"1319962",,,Q764141,,,,,,,,
"1000122",Temple of Venus and Roma,"Venus, Rome",temple,,Rome,IT,41.890812,12.490168,"113",SE,140-145,"140","145","2",,,,F,,"god, city",Roman,,,,,Pleiades,"15008",,,"7481",,,,,,,,,,,
"1000123",Temple of Venus Genetrix,Venus,temple,Forum of Julius,Rome,IT,41.8942,12.4848,"130",SE,"-46","-46",,"-1",,,,F,,god,Roman,,,Blake,,Pleiades,,,,"5656",,,,,,,,,,,
"1000124",Temple of Venus Obsequens,Venus,temple,Circus Maximus,Rome,IT,,,,,"-290","-290",,"-3",,,,F,,god,Roman,,,,,,,,,,,,,,,,,,,,
"1000125",Temple of Venus Victrix,Venus,temple,Campus Martius,Rome,IT,41.895335,12.473014,"90",E,"-55","-55",,"-1",,,,F,,god,Roman,,yes,Stamper,senate,"Pleiades; coords modified",,,,,,,,,,,,,,,
"1000126",Temple of the Divine Vespasian and the Divine Titus,"Vespasian, Titus",temple,Forum,Rome,IT,41.892876,12.484081,"119",SE,,,,,,,,M,,emperor,Roman,,,,,Pleiades,"15042",,,"5643",,,Q731284,,,,,,,,
"1000127",Temple of Vesta,Vesta,temple,Forum,Rome,IT,41.891792,12.486141,"35",NE,"-575","-575",,"-6",,,,F,,god,Roman,,,Stamper,,Pleiades,"15010",,,"8407",,Temple_of_Vesta,,,,,,,,,
"1000128",Temple of Vesta,Vesta,temple,,Tivoli,IT,41.9667,12.8009,"190",S,early 1st-Century BCE,"-99","-75","-1",,,,F,,god,Roman,,,,,Pleiades,"4381",,,"11457",,"Temple_of_Vesta,_Tivoli",Q1219688,,,,,,,,
"1000129",Temple of Vica Pota,Vica Pota,temple,Velian Hill,Rome,IT,,,,,-292-219,"-292","-219","-3",,,,F,,god,Roman,,,,,,,,,,,,,,,,,,,,
"1000130",Temple of Victory,Victoria,temple,Palatine Hill,Rome,IT,41.889418,12.48521,"219",SW,"-294","-294",,"-3",,,,F,,concept,Roman,,,Stamper,,Pleiades,,,,,,,,,,,,,,,
"1000131",Temple of Volcanus,Volcanus,temple,Campus Martius,Rome,IT,,,,,-292-219,"-292","-219","-3",,,,M,,god,Roman,,,,,,,,,,,,,,,,,,,,
"1000132",Temple of Vortumnus,Vortumnus,temple,Aventine Hill,Rome,IT,,,,,"-264","-264",,"-3",,,,M,August 13,god,Roman,,,,,,,,,,,,,,,,,,,,
"1000133",Temple of Moneta,Moneta,temple,Alban Mount,,IT,,,,,"-168","-168",,"-2",,,,F,June 1,god,Roman,,,,,,,,,,,,,,,,,,,,
"1000134",Temple of Janus Quadrifons,Janus,temple,Forum Transitorium,Rome,IT,,,,,81-96,"81",,"1",,,,M,,god,Roman,,,,,,,,,,,,,,,,,,,,
"1000135",Temple of Veiovis,Veiovis,temple,Tiber Island,Rome,IT,,,,,,,,,,,,M,,god,Roman,,,,,,,,,,,,,,,,,,,,
"1000136",Temple of Aesculapius,Aesculapius,temple,Esquiline,Rome,IT,,,,,,,,,,,,M,,hero,Roman,,no,,,,,,,,,,,,,,,,,,
"1000137",Capitolium,"Jupiter, Juno, Minerva",temple,,Cosa,IT,42.410911,11.286364,"68",E,,,,,,,,M/F,,god,Roman,,yes,,,,,,,,,,,,,,,,,,
"1000138",Capitolium,"Jupiter, Juno, Minerva",temple,,Cumae,IT,40.848488,14.057007,"105",E,"26",,,,,,,M/F,,god,Roman,,yes,,,,"14783",,,,,,,,,,,,,,
"1000139",Capitolium,"Jupiter, Juno, Minerva",temple,,Verona,IT,45.443872,10.996195,"144",SE,,,,,,,,M/F,,god,Roman,,,,,,,,,,,,,,,,,,,,
"1000140",Capitolium,"Jupiter, Juno, Minerva",temple,,Scarbantia,HU,47.68489,16.58305,"208",SW,,,,,,,,M/F,,god,Roman,,,,,,,,,,,,,,,,,,,,
"1000141",Capitolium,"Jupiter, Juno, Minerva",temple,,Constantinople,TR,41.013342,28.956067,,,"330","330",,,,,,M/F,,god,Roman,,no,,,,,,,,,,,,,,,,,,
"1000142",Temple of Augustus,"Augustus, Rome",temple,,Pula,HR,44.870213,13.841842,"156",SE,,"-2","14","1",,,,M/F,,"emperor, city",Roman,,yes,,,,,,,,,"Temple_of_Augustus,_Pula",Q770030,,,,,,,,
"1000143",Temple of Augustus,,temple,,Barcelona,ES,41.383351,2.177103,"314",NW,1st c. BCE,,,"-1",,,,M,,emperor,Roman,,yes,,,,,,,,,"Temple_of_Augustus,_Barcelona",Q3819019,,,,,,,,
"1000144",Temple of Augustus,Augustus,temple,,Pozzuoli,IT,40.821276,14.120447,"178",S,,,,"1",,,,M,,emperor,Roman,,yes,,,,,,,,,,,,,,,,,,
"1000145",Capitolium,"Jupiter, Juno, Minerva",temple,,Althiburos,TN,35.873886,8.785101,"43",NE,,,,,,,,M/F,,god,Roman,,yes,,,,,,,,,,,,,,,,,,
"1000146",Unknown,,temple,,Althiburos,TN,35.874468,8.785616,"224",SW,,,,,,,,,,,Roman,,yes,,,,,,,,,,,,,,,,,,
"1000147",Temple of Minerva,Minerva,temple,,Tebessa,DZ,35.404638,8.122492,"121",SE,,,,,,,,F,,god,Roman,,yes,,,,,,,,,,,,,,,,,,
"1000148",Temple A,"Apollo, Artemis, Aphrodite",temple,,Laodicea on the Lycus,TR,37.836269,29.109676,"27",NE,2nd c. CE,,,"2",,,,M/F,,god,Roman,,yes,,,,"18182",,,,,,,,,,,,,,
"1000149",Temple of Trajan,Trajan,temple,,Pergamon,TR,39.132812,27.183256,"201",S,2nd c. CE,,,"2",,,,M,,emperor,Roman,,yes,,,,,,,,,,,,,,,,,,
"1000150",Temple of Dionysus,Dionysus,temple,,Pergamon,TR,39.132283,27.182573,"166",S,Early 3rd c. CE,,,"3",,,,M,,god,Roman,,yes,,,,,,,,,,,,,,,,,,
"1000151",Temple of Consus,Consus,temple,Aventine,Rome,IT,,,,,"-272",,,"-3",,,,M,December 12,god,Roman,,no,Ziolkowski,,,,,,,,,,,,,,,,,
"1000152",Temple of Hercules at the Colline Gate,Hercules,temple,ad portam collinam,Rome,IT,,,,,,,"-211",,,,,M,,hero,Roman,,no,Ziolkowski,,,,,,,,,,,,,,,,,
"1000153",Temple of Honos,Honor,temple,extra portam collinam,Rome,IT,41.906487,12.498676,,,3rd c. BCE,"-292","-219","-3",,,,M,,concept,Roman,,no,Ziolkowski,,,,,,,,,,,,,,,,,
"1000154",Temple of Honos,Honor,temple,ad Portam Capenam,Rome,IT,,,,,"-233","-233",,"-3","-205",,"1000038",F,July 17,concept,Roman,,no,Ziolkowski,,,,,,,,,,,,,,,,,
"1000155",Portonaccio Temple,Apollo,temple,,Veii,IT,42.021223,12.390661,"97",E,"-510",,,"-6",,,,M,,god,Etruscan,,yes,,,,"23458",,,,,,,,,,,,,,
"1000156",Great Chesterford Temple,,temple,,,UK,52.07048,0.208052084,,,,,,,,,,,,,Romano-Celtic,,,The Rural Settlement of Roman Britain,,,,,,,,,,,,,"1002",,,,
"1000157",Harlow,,temple,,,UK,51.79013,0.127076484,,,,,,,,,,,,,Romano-Celtic,,,The Rural Settlement of Roman Britain,,,,,,,,,,,,,"1045",,,,
"1000158","Gosbecks, Colchester",,temple,,,UK,51.86582,0.856901856,,,,,,,,,,,,,Romano-Celtic,,,The Rural Settlement of Roman Britain,,,,,,,,,,,,,"1106",,,,
"1000159",Stonea Grange,,temple,,,UK,52.52174,0.134535711,,,,,,,,,,,,,Romano-Celtic,,,The Rural Settlement of Roman Britain,,,,,,,,,,,,,"2042",,,,
"1000160","Waste Management Park, Waterbeach, Cambridge",,temple,,,UK,52.2972,0.1791583,,,,,,,,,,,,,Romano-Celtic,,,The Rural Settlement of Roman Britain,,,,,,,,,,,,,"2068",,,,
"1000161",Baldock,,temple,,,UK,51.99054,-0.184278987,,,,,,,,,,,,,Romano-Celtic,,,The Rural Settlement of Roman Britain,,,,,,,,,,,,,"3012",,,,
"1000162",Wood End Lane/Buncefield Lane,,temple,,,UK,51.7593,-0.433190999,,,,,,,,,,,,,Romano-Celtic,,,The Rural Settlement of Roman Britain,,,,,,,,,,,,,"3031",,,,
"1000163","Friars Wash, Redbourn",,temple,,,UK,51.81901,-0.404061466,,,,,,,,,,,,,Romano-Celtic,,,The Rural Settlement of Roman Britain,,,,,,,,,,,,,"3073",,,,
"1000164",Caistor St Edmund temple,,temple,,,UK,52.58692,1.304821414,,,,,,,,,,,,,Romano-Celtic,,,The Rural Settlement of Roman Britain,,,,,,,,,,,,,"4023",,,,
"1000165","Scole, A143 Scole-Stuston Bypass",,temple,,,UK,52.36266,1.159824025,,,,,,,,,,,,,Romano-Celtic,,,The Rural Settlement of Roman Britain,,,,,,,,,,,,,"4031",,,,
"1000166","Crownthorpe, Wicklewood",,temple,,,UK,52.58352,1.080879369,,,,,,,,,,,,,Romano-Celtic,,,The Rural Settlement of Roman Britain,,,,,,,,,,,,,"4083",,,,
"1000167",Lancing Down,,temple,,,UK,50.84807,-0.328010681,,,,,,,,,,,,,Romano-Celtic,,,The Rural Settlement of Roman Britain,,,,,,,,,,,,,"7006",,,,
"1000168",Greenwich Park,,temple,,,UK,51.48127,0.001558654,,,,,,,,,,,,,Romano-Celtic,,,The Rural Settlement of Roman Britain,,,,,,,,,,,,,"8036",,,,
"1000169",Lullingstone,,temple,,,UK,51.36418,0.196533335,,,,,,,,,,,,,Romano-Celtic,,,The Rural Settlement of Roman Britain,,,,,,,,,,,,,"9013",,,,
"1000170","Castle Field, Worth",,temple,,,UK,51.25017,1.3458945,,,,,,,,,,,,,Romano-Celtic,,,The Rural Settlement of Roman Britain,,,,,,,,,,,,,"9015",,,,
"1000171",Keston,,temple,,,UK,51.3505,0.028999999,,,,,,,,,,,,,Romano-Celtic,,,The Rural Settlement of Roman Britain,,,,,,,,,,,,,"9016",,,,
"1000172","Springhead, sanctuary complex",,temple,,,UK,51.43066,0.32613761,,,,,,,,,,,,,Romano-Celtic,,,The Rural Settlement of Roman Britain,,,,,,,,,,,,,"9020",,,,
"1000173","Springhead, roadside settlement",,temple,,,UK,51.4307,0.323981736,,,,,,,,,,,,,Romano-Celtic,,,The Rural Settlement of Roman Britain,,,,,,,,,,,,,"9021",,,,
"1000174",Thurnham,,temple,,,UK,51.2847,0.579052952,,,,,,,,,,,,,Romano-Celtic,,,The Rural Settlement of Roman Britain,,,,,,,,,,,,,"9069",,,,
"1000175",Richborough temples,,temple,,,UK,51.28995,1.329420998,,,,,,,,,,,,,Romano-Celtic,,,The Rural Settlement of Roman Britain,,,,,,,,,,,,,"9106",,,,
"1000176","Boxted, Upchurch",,temple,,,UK,51.36451,0.658099701,,,,,,,,,,,,,Romano-Celtic,,,The Rural Settlement of Roman Britain,,,,,,,,,,,,,"9126",,,,
"1000177",Farley Heath,,temple,,,UK,51.19389,-0.49751161,,,,,,,,,,,,,Romano-Celtic,,,The Rural Settlement of Roman Britain,,,,,,,,,,,,,"10005",,,,
"1000178",Wanborough Roman Temple,,temple,,,UK,51.23794,-0.683091189,,,,,,,,,,,,,Romano-Celtic,,,The Rural Settlement of Roman Britain,,,,,,,,,,,,,"10027",,,,
"1000179","Church Field, Titsey",,temple,,,UK,51.27624,0.035920719,,,,,,,,,,,,,Romano-Celtic,,,The Rural Settlement of Roman Britain,,,,,,,,,,,,,"10035",,,,
"1000180",Chanctonbury Ring,,temple,,,UK,50.89682,-0.381227592,,,,,,,,,,,,,Romano-Celtic,,,The Rural Settlement of Roman Britain,,,,,,,,,,,,,"11012",,,,
"1000181","Broadbridge, Bosham",,temple,,,UK,50.83983,-0.852303555,,,,,,,,,,,,,Romano-Celtic,,,The Rural Settlement of Roman Britain,,,,,,,,,,,,,"11023",,,,
"1000182","Ratham Mill, Funtington",,temple,,,UK,50.85183,-0.852122691,,,,,,,,,,,,,Romano-Celtic,,,The Rural Settlement of Roman Britain,,,,,,,,,,,,,"11062",,,,
"1000183",Weycock Hill,,temple,,,UK,51.49345,-0.817544128,,,,,,,,,,,,,Romano-Celtic,,,The Rural Settlement of Roman Britain,,,,,,,,,,,,,"12055",,,,
"1000184",Bancroft temple-Mausoleum,,temple,,,UK,52.05657,-0.797733369,,,,,,,,,,,,,Romano-Celtic,,,The Rural Settlement of Roman Britain,,,,,,,,,,,,,"13002",,,,
"1000185",Bourton Grounds temple,,temple,,,UK,51.99158,-0.939216473,,,,,,,,,,,,,Romano-Celtic,,,The Rural Settlement of Roman Britain,,,,,,,,,,,,,"13039",,,,
"1000186",Chedworth temple,,temple,,,UK,51.81811,-1.91261855,,,,,,,,,,,,,Romano-Celtic,,,The Rural Settlement of Roman Britain,,,,,,,,,,,,,"14072",,,,
"1000187",Lydney Park,,temple,,,UK,51.72146,-2.557441682,,,,,,,,,,,,,Romano-Celtic,,,The Rural Settlement of Roman Britain,,,,,,,,,,,,,"14074",,,,
"1000188",Uley,,temple,,,UK,51.69565,-2.306678281,,,,,,,,,,,,,Romano-Celtic,,,The Rural Settlement of Roman Britain,,,,,,,,,,,,,"14103",,,,
"1000189",Hayling Island temple,,temple,,,UK,50.82193,-0.972536725,,,,,,,,,,,,,Romano-Celtic,,,The Rural Settlement of Roman Britain,,,,,,,,,,,,,"15044",,,,
"1000190",Sansom's Platt,,temple,,,UK,51.86778,-1.343901034,,,,,,,,,,,,,Romano-Celtic,,,The Rural Settlement of Roman Britain,,,,,,,,,,,,,"16063",,,,
"1000191",Woodeaton,,temple,,,UK,51.80893,-1.223670327,,,,,,,,,,,,,Romano-Celtic,,,The Rural Settlement of Roman Britain,,,,,,,,,,,,,"16093",,,,
"1000192",Marcham/Frilford,,temple,,,UK,51.6633,-1.366780827,,,,,,,,,,,,,Romano-Celtic,,,The Rural Settlement of Roman Britain,,,,,,,,,,,,,"16099",,,,
"1000193",Nettleton,,temple,,,UK,51.49076,-2.257769643,,,,,,,,,,,,,Romano-Celtic,,,The Rural Settlement of Roman Britain,,,,,,,,,,,,,"17001",,,,
"1000194",Badbury Romano-Celtic temple,,temple,,,UK,50.82652,-2.057591749,,,,,,,,,,,,,Romano-Celtic,,,The Rural Settlement of Roman Britain,,,,,,,,,,,,,"20014",,,,
"1000195",Maiden Castle,,temple,,,UK,50.69488,-2.46999813,,,,,,,,,,,,,Romano-Celtic,,,The Rural Settlement of Roman Britain,,,,,,,,,,,,,"20035",,,,
"1000196",Poundbury,,temple,,,UK,50.71896,-2.451285648,,,,,,,,,,,,,Romano-Celtic,,,The Rural Settlement of Roman Britain,,,,,,,,,,,,,"20060",,,,
"1000197",Jordan Hill,,temple,,,UK,50.63755,-2.427115997,,,,,,,,,,,,,Romano-Celtic,,,The Rural Settlement of Roman Britain,,,,,,,,,,,,,"20079",,,,
"1000198",Brean Down,,temple,,,UK,51.32421,-3.015511638,,,,,,,,,,,,,Romano-Celtic,,,The Rural Settlement of Roman Britain,,,,,,,,,,,,,"21004",,,,
"1000199",Henley Wood,,temple,,,UK,51.3831,-2.801914168,,,,,,,,,,,,,Romano-Celtic,,,The Rural Settlement of Roman Britain,,,,,,,,,,,,,"21047",,,,
"1000200","Pagans Hill, Chew Stoke",,temple,,,UK,51.36073,-2.637358019,,,,,,,,,,,,,Romano-Celtic,,,The Rural Settlement of Roman Britain,,,,,,,,,,,,,"21106",,,,
"1000201",Lamyatt Beacon,,temple,,,UK,51.12394,-2.473626892,,,,,,,,,,,,,Romano-Celtic,,,The Rural Settlement of Roman Britain,,,,,,,,,,,,,"21127",,,,
"1000202","Redhill, Ratcliffe on Soar",,temple,,,UK,52.86942,-1.269562233,,,,,,,,,,,,,Romano-Celtic,,,The Rural Settlement of Roman Britain,,,,,,,,,,,,,"25035",,,,
"1000203",Cosgrove,,temple,,,UK,52.07176,-0.841971487,,,,,,,,,,,,,Romano-Celtic,,,The Rural Settlement of Roman Britain,,,,,,,,,,,,,"26043",,,,
"1000204",Thistleton religious complex/town,,temple,,,UK,52.74453,-0.65474716,,,,,,,,,,,,,Romano-Celtic,,,The Rural Settlement of Roman Britain,,,,,,,,,,,,,"27005",,,,
"1000205","Grimstock Hill, Coleshill",,temple,,,UK,52.51183,-1.714308514,,,,,,,,,,,,,Romano-Celtic,,,The Rural Settlement of Roman Britain,,,,,,,,,,,,,"32006",,,,
"1000206",Maryport,,temple,,,UK,54.72287,-3.489841344,,,,,,,,,,,,,Romano-Celtic,,,The Rural Settlement of Roman Britain,,,,,,,,,,,,,"41043",,,,
"1000207",Great Bulmore,,temple,,,UK,51.61875,-2.927248119,,,,,,,,,,,,,Romano-Celtic,,,The Rural Settlement of Roman Britain,,,,,,,,,,,,,"43021",,,,
"1000208",Caersws Vicus 84-93,,temple,,,UK,52.5169,-3.428691514,,,,,,,,,,,,,Romano-Celtic,,,The Rural Settlement of Roman Britain,,,,,,,,,,,,,"45019",,,,
"1000209",Temple of Saturn,Saturn,temple,,Dougga,TN,36.42555,9.22063,"109",E,,,,,,,,M,,god,Roman,,,,,,"11588",,,,,,,,,,,,,,
"1000210",Temple of Saturn,Saturn,temple,,Thuburbo Majus,TN,36.400753,9.907412,"132",SE,,,,,,,,M,,god,Roman,,,,,,"31251",,,,,,,,,,,,,,
"1000211",Temple of Saturn,Saturn,temple,,Tiddis,DZ,36.463333,6.483889,"75",E,,,,,,,,M,,god,Roman,,,,,,,,,,,,,,,,,,,,
"1000212",Temple of Hercules,Hercules,temple,,Amman,JO,31.9538,35.9349,"76",E,,"162",,"2","166",,,M,,hero,Roman,,,Wikipedia,,,,,,,,Temple_of_Hercules_(Amman),,,,,,,,,
"1000213",Temple of Herakles,Hercules,temple,,Agrigento,IT,37.290252,13.586221,"89",E,,,,"-6",,,,M,,hero,Greek,,Yes,Wikipedia,,,,,,,,"Temple_of_Heracles,_Agrigento",,,,,,,,,
"1000214",Temple of Hera Lakinia,Juno,temple,,Agrigento,IT,37.288662,13.600197,"82",E,ca. 450 BC,,,"-5",,,,F,,god,Greek,,Yes,Wikipedia,,,,,,,,"Temple_of_Juno,_Agrigento",,,,,,,,,
"1000215",Temple of Concord,,temple,,Agrigento,IT,37.289747,13.592005,"89",E,ca. 440-430 BC,,,"-5",,,,,,,Greek,,Yes,Wikipedia,,,,,,,,"Temple_of_Concordia,_Agrigento",,,,,,,,,
"1000216",Temple of Asclepius,,temple,,Agrigento,IT,37.282531,13.589582,"89",E,late 5th c. BC,,,"-5",,,,,,,Greek,,Yes,Wikipedia,,,,,,,,Valle_dei_Templi,,,,,,,,,
"1000217",Temple of Olympian Zeus,Jupiter,temple,,Agrigento,IT,37.290982,13.584423,"77",E,5th c. BC,,,"-5",,,,M,,god,Greek,,Yes,Wikipedia,,,,,,,,"Temple_of_Olympian_Zeus,_Agrigento",,,,,,,,,
"1000218",Temple of Hephaistos,Vulcan,temple,,Agrigento,IT,37.292956,13.578769,"86",E,ca. 430 BC,,,"-6",,,,M,,god,Greek,,Yes,Wikipedia,,,,,,,,Valle_dei_Templi,,,,,,,,,
"1000219",Sacellum,,temple,,Agrigento,IT,37.292956,13.578769,"82",E,ca. 530-520 BC,,,"-7",,,,,,,Greek,,Yes,Wikipedia,,,,,,,,Valle_dei_Templi,,,,,,,,,
"1000220",Temple of the Dioscuri,,temple,,Agrigento,IT,37.291344,13.581507,"83",E,mid-5th c. BC,,,"-5",,,,,,,Greek,,Yes,Wikipedia,,,,,,,,Valle_dei_Templi,,,,,,,,,
"1000221",Temple L,,temple,,Agrigento,IT,37.291043,13.581401,"77",E,late 5th c. BC,,,"-5",,,,,,,Greek,,Yes,,,,,,,,,,,,,,,,,,
"1000222",Temple of Demeter,,temple,,Agrigento,IT,37.299241,13.603379,"123",SE,ca. 480-470 BC,,,"-5",,,,,,,Greek,,Yes,,,,,,,,,,,,,,,,,,
"1000223",Temple of Isis,,temple,,Agrigento,IT,37.298272,13.589222,"167",S,late 1st c. BC,,,"-1",,,,,,,Roman,,Yes,,,,,,,,,,,,,,,,,,
"1000224",Temple of Poseidon,Neptune,temple,,Sounion,GR,37.650153,24.024573,"103",E,444-440 BC,,,"-5",,,,M,,god,Greek,,Yes,Wikipedia,,,,,,,,Temple_of_Poseidon_at_Sounion,,,,,,,,,
"1000225",Temple of Athena,Minerva,temple,,Sounion,GR,37.652933,24.027015,"98",E,470 BC,,,"-5",1st c. CE,,,F,,god,Greek,,Yes,,,,,,,,,,,,,,,,,,
"1000226",Heroon of Phrontis,Phrontis,temple,,Sounion,GR,37.653068,24.02716,"102",E,5th c. BC,,,"-5",,,,M,,hero,Greek,,Yes,,,,,,,,,,,,,,,,,,
"1000227",Capitolium,"Jupiter, Juno, Minerva",temple,,Terracina,IT,41.29215,13.248628,"224",SW,,,,,,,,M/F,,god,Roman,,Yes,Wikipedia,,,,,,,,,,,,,,,,,
"1000228",Church of San Cesareo,,temple,,Terracina,IT,41.291923,13.248411,"132",SE,,,,,,,,,,,Roman,,Yes,PECS,,,,,,,,,,,,,,,,,
"1000229",Temple of Apollo,Apollo,temple,,Pompeii,IT,40.74921,14.4844,,,,,,,,,,,,god,,,,Vici.org,,,"4349",,,,,Temple_of_Apollo_(Pompeii),Q2699249,,,,,,,,
"1000230",Temple of Bellona,Bellona,temple,,Ostia,IT,41.752632,12.291518,,,,,,,,,,,,,,,,Vici.org,,,"4380",,,,,"Temple_of_Bellona,_Ostia",,,,,,,,,No
"1000231",Tharros,,temple,,San Giovanni di Sinis,IT,39.873825,8.440263,,,,,,,,,,,,,,,,Vici.org,,,"7846",,,,,,,,,,,,,,No
"1000232",Temple of Juno,Juno,temple,,Gabii,IT,41.887016,12.71593,,,,,,,,,,,,god,,,,Vici.org,,,"7912",,,,,,,,,,,,,,No
"1000233",Temple of Antas,,temple,,Fluminimaggiore,IT,39.394028,8.500288,,,,,,,,,,,,,Punic,,,Vici.org,,,"8129",,,,,,,,,,,,,,No
"1000234",Punico-Roman Temple,,temple,,Cagliari,IT,39.222012,9.106047,,,,,,,,,,,,,,,,Vici.org,,,"8476",,,,,,,,,,,,,,No
"1000235",Capitolium,"Jupiter, Juno, Minerva",temple,,Brescia,IT,45.539905,10.225802,,,,,,,,,,,,god,,,,Vici.org,,Built by Vespasian in AD 73,"8480",,,,,Capitolium_of_Brixia,Q3657072,,,,,,,,No
"1000236",Temple of Jupiter,Jupiter,temple,,Bidoni,IT,40.121441,8.94209,,,,,,,,,,,,god,,,,Vici.org,,,"8492",,,,,,,,,,,,,,No
"1000237",Temple at Bovianum Vetus,,temple,,Pietrabbondante,IT,41.73999,14.386793,,,,,,,,,,,,,,,,Vici.org,,,"10919",,,,,,,,,,,,,,No
"1000238",Temple of Hera Lacinia,Hera,temple,,,IT,39.02651,17.204949,,,,,,,,,,,,god,,,,Vici.org,,,"10966",,,,,,,,,,,,,,No
"1000239",Temple complex,,temple,,Metapontum,IT,40.383694,16.823549,,,,,,,,,,,,,,,,Vici.org,,,"11201",,,,,,,,,,,,,,No
"1000240",Temple of Venus Erycina,Venus,temple,,Segesta,IT,37.941475,12.832296,,,,,,,,,,,,god,,,,Vici.org,,,"11596",,,,place/segesta/segesta-temple,,,,,,,,,,No
"1000241",Temple of Diana,,temple,,Aricia,IT,41.723934,12.710217,,,,,,,,,,,,god,,,,Vici.org,,,"11609",,,,place/aricia,,,,,,,,,,No
"1000242",Twin Temples,,temple,,Carsulae,IT,42.639618,12.557378,,,,,,,,,,,,,,,,Vici.org,,,"11625",,,,,,,,,,,,,,No
"1000243",Acropolis,,temple,,Populonia,IT,42.988754,10.5092,,,,,,,,,,,,,,,,Vici.org,,,"11649",,,,,,,,,,,,,,No
"1000244",Temple of Fortuna,Fortuna,temple,,Palestrina,IT,41.838009,12.89152,,,,,,,,,,,,concept,,,,Vici.org,,,"11650",,,,,Palestrina#Sanctuary_of_Fortuna_Primigenia,,,,,,,,,No
"1000245",Temple of Minerva,Minerva,temple,,Assisi,IT,43.071224,12.614974,,,,,,,,,,,,god,,,,Vici.org,,,"11658",,,,,,,,,,,,,,No
"1000246",Temple of Athena,Athena,temple,,Syracuse,IT,37.05965,15.29354,,,,,,,,,,,,god,Greek,,,Vici.org,,Part of the structure is incorporated in Siracusa Cathedral,"11869",,,,,,,,,,,,,,No
"1000247",Temple of Apollo,Apollo,temple,,Syracuse,IT,37.063938,15.29297,,,,,,,,,,,,god,Greek,,,Vici.org,,,"11870",,,,,,,,,,,,,,No
"1000248",Temple of Diana,Diana,temple,,Alberese,IT,42.672871,11.05109,,,,,,,,,,,,god,,,,Vici.org,,,"11973",,,,,,,,,,,,,,No
"1000249","Temple of Venus, Baiae",Venus,temple,,Bacoli,IT,40.816093,14.071485,,,,,,,,,,,,god,,,,Vici.org,,,"13916",,,,,,,,,,,,,,No
"1000250","Temple of Diana, Baiae",Diana,temple,,Bacoli,IT,40.819092,14.070563,,,,,,,,,,,,god,,,,Vici.org,,,"13917",,,,,,,,,,,,,,No
"1000251",Temple of Jupiter,Jupiter,temple,,Cumae,IT,40.849385,14.051347,"91",E,,,,,,,,,,god,,,,Vici.org,,,"14781",,,,,,,,,,,,,,
"1000252",Temple of Apollo,Apollo,temple,,Cumae,IT,40.848538,14.053502,"42",NE,,,,,,,,,,god,,,,Vici.org,,,"14782",,,,,,,,,,,,,,
"1000253",Temple of Apollo,Apollo,temple,,Avernus,IT,40.839336,14.082209,,,,,,,,,,,,god,,,,Vici.org,,Lake Avernus was seen as an entrance to Hades,"16310",,,,,,,,,,,,,,No
"1000254",Temple of Hera,Hera,temple,,Paestum,IT,40.419327,15.005457,,,,,,,,,,,,god,,,,Vici.org,,,"16774",,,,,,,,,,,,,,No
"1000255",Temple of Hera,Hera,temple,,Paestum,IT,40.419971,15.005339,,,,,,,,,,,,god,,,,Vici.org,,,"16775",,,,,,,,,,,,,,No
"1000256",Sanctuary of Minerva,Minerva,temple,,Breno,IT,45.954277,10.284884,,,,,,,,,,,,god,,,,Vici.org,,,"17499",,,,,,,,,,,,,,No
"1000257",Temple A,,temple,,Grumentum,IT,40.283569,15.905277,,,,,,,,,,,,,,,,Vici.org,,,"17600",,,,,,,,,,,,,,No
"1000258",Temple B,,temple,,Grumentum,IT,40.283955,15.906185,,,,,,,,,,,,,,,,Vici.org,,,"17601",,,,,,,,,,,,,,No
"1000259",Temple C,,temple,,Grumentum,IT,40.285255,15.906856,,,,,,,,,,,,,,,,Vici.org,,,"17602",,,,,,,,,,,,,,No
"1000260",Temple D,,temple,,Grumentum,IT,40.285954,15.907481,,,,,,,,,,,,,,,,Vici.org,,,"17603",,,,,,,,,,,,,,No
"1000261",Oratorio di Falaride,,temple,,Agrigento,IT,37.296696,13.58861,,,,,,,,,,,,,,,,Vici.org,,,"17664",,,,,,,,,,,,,,No
"1000262",Temple of Demeter,Demeter,temple,,Terraseo,IT,39.20137,8.635581,,,,,,,,,,,,god,,,,Vici.org,,,"17725",,,,,,,,,,,,,,No
"1000263",Temple of Victory,Victory,temple,,Himera,IT,37.973946,13.82408,,,,,,,,,,,,concept,,,,Vici.org,,,"17910",,,,battle/himera-480-bce,Temple_of_Victory_%28Himera%29,,,,,,,,,No
"1000264",Capitolium,"Jupiter, Juno, Minerva",temple,,Ostia,IT,41.754478,12.28806,,,,,,,,,,,,god,,,,Vici.org,,,"17919",,,,,,,,,,,,,,No
"1000265",Nymphaeum,Nymphs,temple,,Ostia,IT,41.757095,12.295577,,,,,,,,,,F,,god,,,,Vici.org,,,"17927",,,,,,,,,,,,,,No
"1000266",Temple of Rome and Augustus,"Rome, Augustus",temple,,Ostia,IT,41.753574,12.288665,,,,,,,,,,,,"city,emperor",,,,Vici.org,,,"17928",,,,,,,,,,,,,,No
"1000267",Temple 'C',,temple,,Selinunte,IT,37.583237,12.825288,,,,,,,,,,,,,,,,Vici.org,,,"17972",,,,,,,,,,,,,,No
"1000268",Temple 'A',,temple,,Selinunte,IT,37.582607,12.825358,,,,,,,,,,,,,,,,Vici.org,,,"17974",,,,,,,,,,,,,,No
"1000269",Temple 'B',,temple,,Selinunte,IT,37.58292,12.825808,,,,,,,,,,,,,,,,Vici.org,,,"17975",,,,,,,,,,,,,,No
"1000270",Temple 'D',,temple,,Selinunte,IT,37.583687,12.825046,,,,,,,,,,,,,,,,Vici.org,,,"17976",,,,,,,,,,,,,,No
"1000271",Temple 'E',,temple,,Selinunte,IT,37.586716,12.834885,,,,,,,,,,,,,,,,Vici.org,,,"17977",,,,,,,,,,,,,,No
"1000272",Temple 'F',,temple,,Selinunte,IT,37.587337,12.834879,,,,,,,,,,,,,,,,Vici.org,,,"17978",,,,,,,,,,,,,,No
"1000273",Temple 'G',,temple,,Selinunte,IT,37.588314,12.834987,,,,,,,,,,,,,,,,Vici.org,,,"17979",,,,,,,,,,,,,,No
"1000274",Sanctuary of Demeter Malophorus,Demeter,temple,,Selinunte,IT,37.586945,12.817137,,,,,,,,,,,,god,,,,Vici.org,,,"17980",,,,,,,,,,,,,,No
"1000275",Greek temple,,temple,,Taranto,IT,40.473709,17.233036,,,,,,,,,,,,,,,,Vici.org,,,"17981",,,,,,,,,,,,,,No
"1000276",Temple of Venus,Venus,temple,,Tivoli,IT,41.944672,12.774768,,,,,,,,,,,,god,,,,Vici.org,,,"17984",,,,,,,,,,,,,,No
"1000277",Temple of Demeter,Demeter,temple,,Palazzolo Acreide,IT,37.057495,14.89367,,,,,,,,,,,,god,,,,Vici.org,,"Temple of Demeter, Acrae","17988",,,,,,,,,,,,,,No
"1000278",Sanctuary,Hera,temple,,Locri Epizephiri,IT,38.211281,16.238371,,,,,,,,,,,,,,,,Vici.org,,,"17993",,,,,,,,,,,,,,No
"1000279",Temple of Hera,,temple,,Tavole Palatine,IT,40.416199,16.816666,,,,,,,,,,,,god,,,,Vici.org,,,"17996","442611",,,,,,,,,,,404168SHer,,No
"1000280",Temple 'A',,temple,,Pyrgi,IT,42.015289,11.963535,,,,,,,,,,,,,,,,Vici.org,,,"17997",,,,,,,,,,,,,,No
"1000281",Temple 'B',,temple,,Pyrgi,IT,42.015129,11.963889,,,,,,,,,,,,,,,,Vici.org,,,"17998",,,,,,,,,,,,,,No
"1000282",Sanctuary of Apollo,,temple,,Pyrgi,IT,42.014652,11.964618,,,,,,,,,,,,god,,,,Vici.org,,,"17999",,,,,,,,,,,,,,No
"1000283",Temple of Venus Erycina,,temple,,Erice,IT,38.036556,12.583742,,,,,,,,,,,,god,,,,Vici.org,,,"18316",,,,place/eryx,,,,,,,,,,No
"1000284",Talamonaccio,,temple,,,IT,42.551804,11.169796,,,,,,,,,,,,,,,,Vici.org,,Etruscan/Roman temple,"18371",,,,,,,,,,,,,,No
"1000285",Cult Site,,temple,,Monte S. Martino,IT,45.917473,10.817933,,,,,,,,,,,,,,,,Vici.org,,Luogo die culto preromano e romano,"18758",,,,,,,,,,,,,,No
"1000286",Temple of Clitumnus,,temple,,Pissignano,IT,42.842201,12.7569,,,,,,,,,,,,,,,,Vici.org,,,"19791",,,,,,,,,,,,,,No
"1000287",Temple of Flora,,temple,,,IT,41.305756,14.562722,,,,,,,,,,,,concept,,,,Vici.org,,,"19792",,,,,,Q3983249,,,,,,,,No
"1000288",Temple of the Dioscuri,,temple,,Napoli,IT,40.85144,14.25683,,,,,,,,,,,,hero,,,,Vici.org,,,"19793",,,,,,,,,,,,,,No
"1000289",Diana Tifatina,,temple,,Sant'Angelo In Formis,IT,41.118294,14.260515,,,,,,,,,,,,god,,,,Vici.org,,,"19794","432813","22559",,,,,,,,,,,,No
"1000290",Temple,,temple,,Bevagna,IT,42.934608,12.609744,,,,,,,,,,,,,,,,Vici.org,,,"19799",,,,,,,,,,,,,,No
"1000291",Temple Peltuinum,,temple,,,IT,42.283485,13.623908,,,,,,,,,,,,,,,,Vici.org,,,"20380",,,,,,,,,,,,,,No
"1000292",Casentino - Chiesa di Pieve a Socano,,temple,,Castel Focognano,IT,43.652519,11.787855,,,,,,,,,,,,,,,,Vici.org,,Etruscan sanctuary,"20522",,,,,,,,,,,,,,No
"1000293",Large Temple,,temple,,Luna,IT,44.065861,10.01729,"205",SW,,,,,,,,,,,,,,Vici.org,,,"22164",,,,,,,,,,,,,,
"1000294",Sanctuary of the Lake of the Idols,,temple,,,IT,43.866669,11.683333,,,,,,,,,,,,,Etruscan,,,Vici.org,,Lago degli Idoli,"22684",,,,,,,,,,,,,,No
"1000295",Montemignaio,,temple,,La Pieve-molino,IT,43.740524,11.621438,,,,,,,,,,,,,,,,Vici.org,,"Esp. beautifull are the capitals on the pillars, made by local and Lombard artrist - workers","22686",,,,,,,,,,,,,,No
"1000296",Temple of Athena,,temple,,Paestum,IT,40.42453,15.005402,,,,,,,,,,,,god,,,,Vici.org,,,"23309",,,,,,,,,,,,,,No
"1000297",Temple of Diana,,temple,,Cefalú,IT,38.038563,14.02475,,,,,,,,,,,,god,,,,Vici.org,,,"23670",,,,,,,,,,,,,,No
"1000298",Large Temple,,temple,,Vulci,IT,42.419655,11.62843,,,,,,,,,,,,,Etruscan,,,Vici.org,,,"23894",,,,,,,,,,,,,,No
"1000299",Temple of Hercules,,temple,,Vulci,IT,42.418175,11.631992,,,,,,,,,,,,hero,Etruscan,,,Vici.org,,Small temple (sacellum) dedicated to Hercules,"23895",,,,,,,,,,,,,,No
"1000300",Etrusco-Roman temple complex,,temple,,Fiesole,IT,43.808475,11.292941,,,,,,,,,,,,,,,,Vici.org,,,"24190",,,,,,,,,,,,,,No
"1000301",Asclepieion,,temple,,Heloros,IT,36.841862,15.105948,,,,,,,,,,,,hero,,,,Vici.org,,,"24464",,,,,,,,,,,,,,No
"1000302",Temple of Jupiter,,temple,,Tusculum,IT,41.798317,12.704335,,,,,,,,,,,,god,,,,Vici.org,,,"24929",,,,,,,,,,,,,,No
"1000303",Megara Hyblaea,,temple,,Megara Hyblaea,IT,37.204262,15.175998,,,,,,,,,,,,,,,,Vici.org,,Extra mural temple,"25276",,,,,,,,,,,,,,No
"1000304",Temple,,temple,,Paestum,IT,40.423512,15.006211,,,,,,,,,,,,,,,,Vici.org,,Roman Temple - santuario romano,"25323",,,,,,,,,,,,,,No
"1000305",Temple of Peace,,temple,,Paestum,IT,40.421938,15.005541,,,,,,,,,,,,concept,,,,Vici.org,,,"25325",,,,,,,,,,,,,,No
"1000306",Agora sanctuary,,temple,,Morgantina,IT,37.430794,14.479367,,,,,,,,,,,,,,,,Vici.org,,,"25516",,,,,,,,,,,,,,No
"1000307",Temple of Demeter and Kore,,temple,,Morgantina,IT,37.43034,14.479649,,,,,,,,,,,,,,,,Vici.org,,"Morgantia, Murgantia and Morgantium - temple","25518",,,,,,,,,,,,,,No
"1000308",Citadel,,temple,,Morgantina,IT,37.437569,14.48876,,,,,,,,,,,,,,,,Vici.org,,Ruins of a temple,"25626",,,,,,,,,,,,,,No
"1000309",Rock of Ceres,,temple,,Enna,IT,37.569225,14.289181,,,,,,,,,,,,,,,,Vici.org,,Rock shrine of Demeter - Ceres.Rocca di Cerere,"25627",,,,,,,,,,,,,,No
"1000310",Templi Ferali,,temple,,Acrae,IT,37.05713,14.895352,,,,,,,,,,,,hero,,,,Vici.org,,Heroon. Temple dedicated to the cult of the dead heroes,"25686",,,,,,,,,,,,,,No
"1000311",Kasmenai - Casmenae,,temple,,,IT,37.076412,14.82563,,,,,,,,,,,,,,,,Vici.org,,Temple pre Kasmenai,"25689",,,,,,,,,,,,,,No
"1000312",Kasmenai - Casmenae,,temple,,,IT,37.076519,14.826977,,,,,,,,,,,,,,,,Vici.org,,Temple,"25690",,,,,,,,,,,,,,No
"1000313",Temple of Hercules Antica,,temple,,Ostia,IT,41.753826,12.286155,,,,,,,,,,,,hero,,,,Vici.org,,,"27354",,,,,,,,,,,,,,No
"1000314",Serapeum,,temple,,Ostia,IT,41.753315,12.283876,,,,,,,,,,,,hero,,,,Vici.org,,,"27355",,,,,,,,,,,,,,No
"1000315",Temple of Ceres,,temple,,Ostia,IT,41.756348,12.291035,,,,,,,,,,,,god,,,,Vici.org,,,"27359",,,,,,,,,,,,,,No
"1000316",Four Small Temples,,temple,,Ostia,IT,41.755665,12.290623,,,,,,,,,,,,,,,,Vici.org,,Quatro Tempietti,"27361",,,,,,,,,,,,,http://www.ostia-antica.org/regio2/8/8-2.htm,No
"1000317",Shrine of the Altar of the Twins,,temple,,Ostia,IT,41.756107,12.29099,,,,,,,,,,,,,,,,Vici.org,,"Regio II - Insula VII - Sacello dell'Ara dei Gemelli (II,VII,3)","27363",,,,,,,,,,,,,http://www.ostia-antica.org/regio2/7/7-3.htm,No
"1000318",Jupiter Temple,,temple,,Ostia,IT,41.755539,12.290882,,,,,,,,,,,,god,,,,Vici.org,,The Shrine of Jupiter - Sacello di Giove,"27364",,,,,,,,,,,,,http://www.ostia-antica.org/regio2/8/8-4.htm,No
"1000319",Templum Mensores,,temple,,Ostia,IT,41.753784,12.285011,,,,,,,,,,,,,,,,Vici.org,,Probably temple was dedicated to Ceres,"27380",,,,,,,,,,,,,,No
"1000320",Sanctuary of the Bona Dea,,temple,,Ostia,IT,41.750599,12.285399,,,,,,,,,,,,god,,,,Vici.org,,,"27393",,,,,,,,,,,,,http://www.ostia-antica.org/regio4/8/8-3.htm,No
"1000321",Templum Fabrum Navalium,,temple,,Ostia,IT,41.752777,12.286075,,,,,,,,,,,,,,,,Vici.org,,,"27409",,,,,,,,,,,,,http://www.ostia-antica.org/regio3/2/2-1.htm,No
"1000322",Temple of Isis,,temple,Isola Sacra,Portus,IT,41.772774,12.255305,,,,,,,,,,,,,,,,Vici.org,,Isola Sacra,"27423",,,,,,,,,,,,,http://www.ostia-antica.org/portus/s009.htm,No
"1000323",Temple of Portumnus,,temple,,Portus,IT,41.780937,12.27154,,,,,,,,,,,,god,,,,Vici.org,,,"27428",,,,,,,,,,,,,http://www.ostia-antica.org/portus/t021.htm,No
"1000324",Templum Rotundum,,temple,,Ostia,IT,41.753544,12.28787,,,,,,,,,,,,,,,,Vici.org,,,"27444",,,,,,,,,,,,,http://www.ostia-antica.org/regio1/11/11-1.htm,No
"1000325",Temple of the Round Altar,,temple,,Ostia,IT,41.753693,12.286317,,,,,,,,,,,,,,,,Vici.org,,,"27449",,,,,,,,,,,,,http://www.ostia-antica.org/regio1/15/15-6.htm,No
"1000326",Temple with portico,,temple,,Cumae,IT,40.847906,14.057575,"16",N,Early 1st c. CE,,,"1",,,,,,,Roman,,,,,,,,,,,,,,,,,,,,
"1000327",Masseria del Gigante,,temple,,Cumae,IT,40.847826,14.058799,"280",W,Late 1st c. CE,,,"1",,,,,,,Roman,,,,,,,,,,,,,,,,,,,,
"1000328",Sanctuary Alto da Vigia,,temple,,Colares,PT,38.824299,-9.47159,,,,,,,,,,,,,,,,Vici.org,,,"10721","256172","36997",,,,,,,,,,,,No
"1000329",Temple at Mirobriga Celticorum,,temple,,Santiago do Cacém,PT,38.010284,-8.683709,,,,,,,,,,,,,,,,Vici.org,,,"10725",,,,,,,,,,,,,,No
"1000330",Temple,,temple,,Évora,PT,38.572571,-7.907287,,,1st c. CE,,,"1",,,,,,,,,,Vici.org,,,"10744",,,,,Roman_Temple_of_Évora,Q737441,,,,,,,,No
"1000331",S. Miguel de Mota,,temple,,,PT,38.64328,-7.44304,,,,,,,,,,,,,,,,Vici.org,,,"15153","256429","37000",,,,,,,,,,,,No
"1000332",Calanta,,temple,,,PT,38.76722,-8.03341,,,,,,,,,,,,,,,,Vici.org,,,"15154","256042","37145",,,,,,,,,,,,No
"1000333",Cabeço de Fráguas,,temple,,,PT,40.419579,-7.22432,,,,,,,,,,,,,,,,Vici.org,,,"15250",,"40134",,,,,,,,,,,,No
"1000334",Santuário da Ns. das Cabeças,,temple,,,PT,40.339989,-7.41788,,,,,,,,,,,,,,,,Vici.org,,,"15251",,"40135",,,,,,,,,,,,No
"1000335",Sra. do Granja,,temple,,,PT,40.05547,-7.25653,,,,,,,,,,,,,,,,Vici.org,,,"15252",,"40136",,,,,,,,,,,,No
"1000336",Santuário da Sra. do Almortão,,temple,,Idanha a Nova,PT,39.907059,-7.17339,,,,,,,,,,,,,,,,Vici.org,,,"15253",,"40137",,,,,,,,,,,,No
"1000337",Santuário de S. Pedro de Almuro,,temple,,,PT,38.997742,-7.48622,,,,,,,,,,,,,,,,Vici.org,,,"15254",,"40138",,,,,,,,,,,,No
"1000338",Roman Temple,,temple,,Vic,ES,41.929218,2.256823,,,,,,,,,,,,,,,,Vici.org,,,"10779",,,,,Roman_temple_of_Vic,Q2294240,,,,,,,,No
"1000339",Temple,,temple,,Córdoba,ES,37.884762,-4.77628,,,1st c. CE,,,"1",,,,,,,,,,Vici.org,,,"10794",,,,,Roman_temple_of_Córdoba,Q1106385,,,,,,,,No
"1000340",Temple of Diana - Emerita Augusta,Diana,temple,,Mérida,ES,38.91658,-6.34435,,,,,,,,,,F,,god,,,,Vici.org,,,"11493",,,,place=augusta-emerita/augusta-emerita-photos/augusta-emerita-civic-forum,,,,,,,,,,No
"1000341",Temple,Trajan and the Roman Gods,temple,,Alcántara,ES,39.721661,-6.891493,,,2nd c. CE,,,"2",,,,M/F,,"god,emperor",,,,Vici.org,,,"14476","255966","25494",,,Roman_temple_of_Alcántara,Q7362337,,,,,,,,No
"1000342",Fortuna,Fortuna,temple,,Los Baños de Fortuna,ES,38.209648,-1.11363,,,,,,,,,,F,,god,,,,Vici.org,,,"15389","265899","36550",,,,,,,,,,,,No
"1000343",Cerro de los Santos,,temple,,Montealegre del Castillo,ES,38.732769,-1.27022,,,,,,,,,,,,,,,,Vici.org,,,"15394","265862","37001",,,es=Cerro_de_los_Santos,Q5486840,,,,,,,,No
"1000344",Cancho Roano,,temple,,Zalamea de la Serena,ES,38.701099,-5.68604,,,,,,,,,,,,,,,,Vici.org,,,"15498",,"39956",,,es=Cancho_Roano,Q2060316,,,,,,,,No
"1000345",Los Cuadriales,,temple,,Burguillos del Cerro,ES,38.432659,-6.59005,,,,,,,,,,,,,,,,Vici.org,,,"15552","256139","36995",,,,,,,,,,,,No
"1000346",Santa Eulalia de Bóveda,,temple,,Lugo,ES,42.979946,-7.685923,,,,,,,,,,,,,,,,Vici.org,,,"15822","236646","37167",,,es=Santa_Eulalia_de_Bóveda,Q3284580,,,,,,,,No
"1000347","Temple of Serapis, Emporiae",Serapis,temple,,L'Escala,ES,42.133911,3.121315,,,,,,,,,,,,god,,,,Vici.org,,,"17713",,,,,,,,,,,,,,No
"1000348","Forum Temple, Emporiae",,temple,,L'Escala,ES,42.132835,3.117041,"156",SE,,,,,,,,,,,,,,Vici.org,,,"17714",,,,,,,,,,,,,,No
"1000349",Temple columns,,temple,,Sevilla,ES,37.400253,-5.993706,,,,,,,,,,,,,,,,Vici.org,,,"23659",,,,,,,,,,,,,,No
"1000350",Temple Noviodunum,,temple,,Jublains,FR,48.26062,-0.498666,,,,,,,,,,,,,,,,Vici.org,,,"429",,"18750",,,,,,,,,,,,No
"1000351",Nymphaeum Aquae Segetae,Nymphs,temple,,Sceaux-du-Gâtinais,FR,48.115402,2.622707,,,,,,,,,,F,,god,,,,Vici.org,,,"4326",,"7863",,,,,,,,,,,,No
"1000352",Temple,,temple,,Sanxay,FR,46.496559,-0.024869,,,,,,,,,,,,,,,,Vici.org,,,"6364",,,,,,,,,,,,,,No
"1000353",Maison Carrée,,temple,,Nîmes,FR,43.838333,4.356111,"349",N,,,,,,,,,,,,,,Vici.org,,,"7858",,"39300",,,Maison_Carrée,Q677659,,,,,,,,Yes
"1000354",Temple in Glanum,,temple,,Saint-Rémy-de-Provence,FR,43.773125,4.832713,,,,,,,,,,,,,,,,Vici.org,,,"7903",,,,,,,,,,,,,,No
"1000355",Tasciaca,,temple,,Pouillé,FR,47.324047,1.299076,,,,,,,,,,,,,,,,Vici.org,,,"8017","138608","20524",,,,,,,,,,,,No
"1000356",Roman Temple,,temple,,Orange,FR,44.135654,4.807766,,,,,,,,,,,,,,,,Vici.org,,,"8511",,,,place=nemausus-nimes/nemausus-nimes-maison-carree,,,,,,,,,,No
"1000357","Temple of Mercury, Lutetia",Mercury,temple,,Paris,FR,48.843395,2.327117,,,,,,,,,,M,,god,,,,Vici.org,,,"9849",,,,place=glanum,,,,,,,,,,No
"1000358",Temple 'le Palais',,temple,,Alba-la-Romaine,FR,44.561203,4.600079,,,,,,,,,,,,,,,,Vici.org,,,"10164",,,,,,,,,,,,,,No
"1000359",Temple of Augustus and Livia,,temple,,Vienne,FR,45.525478,4.874246,"90",E,,,,,,,,,,,,,,Vici.org,,,"10170",,"202070",,place=arausio-orange,it=Tempio_di_Augusto_e_Livia,Q3517516,,,,,,,,Yes
"1000360",Temple of the Cybele,,temple,,Vienne,FR,45.524319,4.875925,,,,,,,,,,,,,,,,Vici.org,,,"10172",,,,,,,,,,,,,,No
"1000361",Temple of Diana,Diana,temple,,Roppeviller,FR,49.103539,7.52761,,,,,,,,,,F,,god,,,,Vici.org,,,"10354",,,,,,,,,,,,,,No
"1000362",Temple of Diana,Diana,temple,,Nîmes,FR,43.839947,4.348574,,,,,,,,,,F,,god,,,,Vici.org,,,"10622",,"393010",,,,,,,,,,,,No
"1000363",Gisacum,,temple,,Le Vieil-Évreux,FR,49.003063,1.235978,,,,,,,,,,,,,,,,Vici.org,,,"10640","109007",,,,,Q2243148,,,,,,,,No
"1000364",Temple of Mercury,Mercury,temple,,Niederbronn-les-Bains,FR,48.960583,7.616738,,,,,,,,,,M,,god,,,,Vici.org,,,"10648",,"39152",,,,,,,,,,,,No
"1000365",Sanctuary,,temple,,Villards-d'Héria,FR,46.423141,5.742032,,,,,,,,,,,,,Gallo-Roman,,,Vici.org,,,"10659",,,,,,,,,,,,,,No
"1000366",Sanctuary,,temple,Mont Rivel,Équevillon,FR,46.76136,5.922335,,,,,,,,,,,,,Gallo-Roman,,,Vici.org,,,"10661",,,,,,,,,,,,,,No
"1000367",Sanctuary (Flaviers - Mouzon),,temple,,Mouzon,FR,49.580894,5.105447,,,,,,,,,,,,,,,,Vici.org,,,"10663",,"20618",,,,,,,,,,,,No
"1000368",Temple Isarnodurum,,temple,,Izernore,FR,46.2234,5.558579,,,,,,,,,,,,,,,,Vici.org,,,"10667","177545","20105",,,,,,,,,,,,No
"1000369",Temple Novioregum,,temple,,Barzan,FR,45.535629,-0.879376,,,,,,,,,,,,,,,,Vici.org,,,"10672",,,,,,,,,,,,,,No
"1000370",Roman temple,,temple,Vineyard Château-Bas,Vernègues,FR,43.681892,5.197178,"327",NW,1st BCE,"-1",,,,,,,,,,,,Vici.org,,,"10684","148046","18074",,,,Q516783,,,,,,,http://www.chateaubas.com/en/pages/history/temple.html,Yes
"1000371",Temple of Apollo,,temple,,Riez,FR,43.817055,6.088223,,,,,,,,,,,,,,,,Vici.org,,,"10697",,,,,,Q1272940,,,,,,,,No
"1000372",Forum Temple Lugdunum Convenarum,,temple,,Saint-Bertrand-de-Comminges,FR,43.029804,0.573152,,,,,,,,,,,,,,,,Vici.org,,,"10770",,,,,,,,,,,,,,No
"1000373",Briga,,temple,,Eu,FR,50.021584,1.462042,,,,,,,,,,,,,,,,Vici.org,,,"10923","108771","13746",,,,,,,,,,,,No
"1000374",Temple complex Petromantalum,,temple,,Genainville,FR,49.120399,1.771297,,,,,,,,,,,,,,,,Vici.org,,,"11313","109004","18747",,,,,,,,,,,,No
"1000375",Temple of Mars,Mars,temple,,Corseul,FR,48.472012,-2.146052,,,,,,,,,,M,,god,,,,Vici.org,,,"11360",,"20763",,,,,,,,,,,,No
"1000376",Temple of Janus,Janus,temple,,Autun,FR,46.96125,4.288465,,,,,,,,,,M,,god,,,,Vici.org,,,"11367",,"207950",,,Temple_of_Janus_(Autun),Q1526555,,,,,,,,No
"1000377",Sanctuary,,temple,,Châteaubleau,FR,48.593163,3.109161,,,,,,,,,,,,,,,,Vici.org,,,"11418","108879","2130",,,,,,,,,,,,No
"1000378",Tempel Cherre',,temple,,Aubigné-Racan,FR,47.660496,0.235538,,,,,,,,,,,,,,,,Vici.org,,,"11881",,"393800",,,,,,,,,,,,No
"1000379",Tempeln Argentomagus,,temple,,Saint-Marcel,FR,46.599777,1.51518,,,,,,,,,,,,,,,,Vici.org,,,"11950",,,,,,,,,,,,,,No
"1000380",Tour de Vesone,,temple,,Périgueux,FR,45.179405,0.714345,,,,,,,,,,,,,,,,Vici.org,,,"11979",,"206160",,,,Q3533474,,,,,,,,No
"1000381",Temple,,temple,,Offemont,FR,47.658772,6.866085,,,,,,,,,,,,,Gallo-Roman,,,Vici.org,,,"14562",,"170040",,,,,,,,,,,,No
"1000382",Temple forêt Halatte,,temple,,Ognon,FR,49.242058,2.625384,,,,,,,,,,,,,,,,Vici.org,,,"14563","335533616","18751",,,,,,,,,,,,No
"1000383",Temple,,temple,,Dax,FR,43.709648,-1.052306,,,,,,,,,,,,,Gallo-Roman,,,Vici.org,,,"14566",,"206190",,,,Q3517676,,,,,,,,No
"1000384",Sanctuary,,temple,,Margerides,FR,45.450756,2.426149,,,,,,,,,,,,,Gallo-Roman,,,Vici.org,,,"14568","138447","16974",,,,,,,,,,,,No
"1000385",Temple de Mercure de la forêt de Tannière,,temple,,Archettes,FR,48.131313,6.57349,,,,,,,,,,,,,,,,Vici.org,,,"14571",,"20758",,,,,,,,,,,,No
"1000386",Tour de Grisset,,temple,,Fréteval,FR,47.896442,1.183712,,,,,,,,,,,,,,,,Vici.org,,,"14574","138623","18152",,,,,,,,,,,,No
"1000387",Sanctuary Donon,,temple,,Grandfontaine,FR,48.512527,7.164421,,,,,,,,,,,,,Gallo-Roman,,,Vici.org,,,"14577",,"15774",,,,,,,,,,,,No
"1000388",Temple - Cathédrale St Jean,,temple,,Alès,FR,44.123901,4.0761,,,,,,,,,,,,,,,,Vici.org,,,"14586",,,,,,,,,,,,,,No
"1000389",Fanum - Civaux,,temple,,Civaux,FR,46.444412,0.664659,,,,,,,,,,,,,,,,Vici.org,,,"14591",,,,,,,,,,,,,,No
"1000390",Grannum,,temple,,Grand,FR,48.383953,5.48573,,,,,,,,,,,,,,,,Vici.org,,,"14743","109016","7783",,,,,,,,,,,,No
"1000391",Temple complex,,temple,,Castelnau-Montratier,FR,44.272472,1.294166,,,,,,,,,,,,,,,,Vici.org,,,"15033","138277","17730",,,,,,,,,,,,No
"1000392",Sanctuary,,temple,,Drevant,FR,46.694786,2.520366,,,,,,,,,,,,,,,,Vici.org,,,"16293",,,,,,,,,,,,,,No
"1000393",Fanum,,temple,,Bennecourt,FR,49.04372,1.570312,,,,,,,,,,,,,,,,Vici.org,,,"16326",,,,,,,,,,,,,,No
"1000394",Mons Seleucus,,temple,,La Bâtie-Montsaléon,FR,44.456219,5.748653,,,,,,,,,,,,,,,,Vici.org,,,"16332","167836",,,,,,,,,,,,,No
"1000395",Nymphaeum,Nymphs,temple,,Gennes,FR,47.337536,-0.232876,,,,,,,,,,F,,god,,,,Vici.org,,,"16398",,"393910",,,,,,,,,,,,No
"1000396",Nistos,,temple,,Bramevaque,FR,42.981285,0.537025,,,,,,,,,,,,,,,,Vici.org,,,"16568","246520","18233",,,,,,,,,,,,No
"1000397",Saint-Pé-d'Ardet,,temple,,Saint-Pé-d'Ardet,FR,42.983734,0.669335,,,,,,,,,,,,,,,,Vici.org,,,"16569",,"20154",,,,,,,,,,,,No
"1000398",Saint-Plancard,,temple,,Saint-Plancard,FR,43.171619,0.576446,,,,,,,,,,,,,,,,Vici.org,,,"16577",,"20156",,,,,,,,,,,,No
"1000399",Roquepertuse,,temple,,Velaux,FR,43.532394,5.27003,,,,,,,,,,,,,,,,Vici.org,,,"16598","148174","18076",,,,,,,,,,,,No
"1000400",Vaugrenier,,temple,,Villeneuve-Loubet,FR,43.623562,7.128598,,,,,,,,,,,,,,,,Vici.org,,,"16608","157943","17386",,,,,,,,,,,,No
"1000401",Rognes,,temple,,Rognes,FR,43.663326,5.347199,,,,,,,,,,,,,,,,Vici.org,,,"16612","148169","18072",,,,,,,,,,,,No
"1000402",Puech Caut,,temple,,Sainte-Eulalie-de-Cernon,FR,43.970982,3.099904,,,,,,,,,,,,,,,,Vici.org,,,"16632",,"18276",,,,,,,,,,,,No
"1000403",La Réole,,temple,,La Réole,FR,44.586464,-0.029494,,,,,,,,,,,,,,,,Vici.org,,,"16660",,"39399",,,,,,,,,,,,No
"1000404",Fanum d'Aron,,temple,,Aurillac,FR,44.926109,2.440561,,,,,,,,,,,,,,,,Vici.org,,,"16667","138193","8396",,,,Q3066668,,,,,,,,No
"1000405",Le Combalou,,temple,,Roquefort-sur-Soulzon,FR,43.974461,2.987631,,,,,,,,,,,,,,,,Vici.org,,,"16700",,"19340",,,,,,,,,,,,No
"1000406",Tour de Eysses,,temple,,Villeneuve-sur-Lot,FR,44.419743,0.721229,,,,,,,,,,,,,,,,Vici.org,,,"16703",,,,,,,,,,,,,,No
"1000407",Châtelet,,temple,,Saint-Désirat,FR,45.249901,4.79432,,,,,,,,,,,,,,,,Vici.org,,,"16715",,"39298",,,,,,,,,,,,No
"1000408","Temple, Brion",,temple,,Saint-Seurin-de-Cadourne,FR,45.282433,-0.838219,,,,,,,,,,,,,,,,Vici.org,,,"16717",,"20175",,,,,,,,,,,,No
"1000409",Sanctuary Rajat,,temple,,Murol,FR,45.591797,2.948923,,,,,,,,,,,,,,,,Vici.org,,,"16745",,"20137",,,,,,,,,,,,No
"1000410",Temple of Diana,,temple,,Aix-les-Bains,FR,45.688812,5.914636,,,,,,,,,,,,,,,,Vici.org,,,"16758",,,,,,,,,,,,,,No
"1000411",Temple de Cybèle,,temple,,Lyon,FR,45.759602,4.818432,,,,,,,,,,,,,,,,Vici.org,,,"16770",,"39462",,,,,,,,,,,,No
"1000412",Temple des Côtes de Clermont,,temple,,Blanzat,FR,45.806736,3.078307,,,,,,,,,,,,,,,,Vici.org,,,"16776",,,,,,,,,,,,,,No
"1000413","Temple de Mercure, Puy de Dôme",,temple,,Orcines,FR,45.771854,2.964456,,,,,,,,,,,,,,,,Vici.org,,,"16779","138464","17715",,,,,,,,,,,,No
"1000414",Temple Cassinomagus,,temple,,Chassenon,FR,45.849098,0.767463,,,,,,,,,,,,,,,,Vici.org,,,"16795",,"39339",,,,,,,,,,,,No
"1000415",Puy Lautard,,temple,,Saint-Pardoux-Morterolles,FR,45.929768,1.869932,,,,,,,,,,,,,,,,Vici.org,,,"16805","138527","18100",,,,,,,,,,,,No
"1000416",Puy-de-Joue,,temple,,Saint-Goussaud,FR,46.033264,1.569519,,,,,,,,,,,,,,,,Vici.org,,,"16808","138556","37144",,,,,,,,,,,,No
"1000417","Chez Rigros, Saint-Pardoux",,temple,,Saint-Pardoux,FR,46.07193,1.3012,,,,,,,,,,,,,,,,Vici.org,,,"16814",,"39297",,,,,,,,,,,,No
"1000418",Sanctuary of Mars Mullo,,temple,,Allonnes,FR,47.968758,0.166472,,,,,,,,,,,,,Gallo-Roman,,,Vici.org,,,"16820",,"20731",,,,,,,,,,,,No
"1000419",Masamas,,temple,,Saint-Léomer,FR,46.399273,0.972868,,,,,,,,,,,,,,,,Vici.org,,,"16834","138451","17638",,,,,,,,,,,,No
"1000420",Lac-d'Antre,,temple,,Villards-d'Héria,FR,46.415447,5.752648,,,,,,,,,,,,,,,,Vici.org,,,"16835",,"39331",,,,,,,,,,,,No
"1000421",Sanctuary Tours Mirandes,,temple,,Vendeuvre-du-Poitou,FR,46.740105,0.293851,,,,,,,,,,,,,,,,Vici.org,,,"16850",,,,,,,,,,,,,,No
"1000422",Les Fons Clairins,,temple,,Uzay-le-Venon,FR,46.813335,2.411545,,,,,,,,,,,,,,,,Vici.org,,,"16855",,"20624",,,,,,,,,,,,No
"1000423",Thaumiers,,temple,,Thaumiers,FR,46.81356,2.639874,,,,,,,,,,,,,,,,Vici.org,,,"16856","138615","17703",,,,,,,,,,,,No
"1000424",Le Bioulet,,temple,,Pupillin,FR,46.869949,5.7476,,,,,,,,,,,,,,,,Vici.org,,,"16861",,"39459",,,,,,,,,,,,No
"1000425",Sanctuary of Alléans,,temple,,Baugy,FR,47.0793,2.749274,,,,,,,,,,,,,,,,Vici.org,,,"16865",,,,,,,,,,,,,,No
"1000426",La Touratte,,temple,,Dun-sur-Auron,FR,46.903824,2.548355,,,,,,,,,,,,,,,,Vici.org,,,"16868",,"20622",,,,,,,,,,,,No
"1000427",Pied de Bourges,,temple,,Clion,FR,46.946854,1.225093,,,,,,,,,,,,,,,,Vici.org,,,"16874",,"20503",,,,,,,,,,,,No
"1000428",Sanctuaries,,temple,,Boncourt-le-Bois,FR,47.139778,5.001985,,,,,,,,,,,,,,,,Vici.org,,,"16892",,,,,,,,,,,,,,No
"1000429",Fourneaux,,temple,,Montreuil-Bellay,FR,47.102268,-0.08869,,,,,,,,,,,,,,,,Vici.org,,,"16901","138471","17457",,,,,,,,,,,,No
"1000430",Temple,,temple,,Chênehutte-Trèves-Cunault,FR,47.305702,-0.161236,,,,,,,,,,,,,,,,Vici.org,,,"16920",,"20780",,,,,,,,,,,,No
"1000431",Villate,,temple,,Neuvy-sur-Barangeon,FR,47.307056,2.297843,,,,,,,,,,,,,,,,Vici.org,,,"16921","138484","20623",,,,,,,,,,,,No
"1000432",Petit-Mars,,temple,,Petit-Mars,FR,47.390633,-1.468336,,,,,,,,,,,,,,,,Vici.org,,,"16928","138512","18115",,,,,,,,,,,,No
"1000433",Temple antique,,temple,,Tours,FR,47.3936,0.68807,,,,,,,,,,,,,,,,Vici.org,,,"16930",,"7874",,,,,,,,,,,,No
"1000434",Sources de la Seine,,temple,,Poncey-sur-l'Ignon,FR,47.484905,4.719573,,,,,,,,,,,,,,,,Vici.org,,,"16939",,"20161",,,,,,,,,,,,No
"1000435",Temple,,temple,,Vannes,FR,47.671444,-2.750201,,,,,,,,,,,,,Gallo-Roman,,,Vici.org,,,"16954",,"39461",,,,,,,,,,,,No
"1000436","Nal, La Vraie-Croix",,temple,,La Vraie-Croix,FR,47.700558,-2.505833,,,,,,,,,,,,,,,,Vici.org,,,"16959",,"39101",,,,,,,,,,,,No
"1000437",Moncelon,,temple,,Briou,FR,47.821045,1.476534,,,,,,,,,,,,,,,,Vici.org,,,"16970","138290","18151",,,,,,,,,,,,No
"1000438",La Tour,,temple,,Sablé-sur-Sarthe,FR,47.83168,-0.353501,,,,,,,,,,,,,,,,Vici.org,,,"16971",,"20733",,,,,,,,,,,,No
"1000439",Le Mur,,temple,,Comblessac,FR,47.845501,-2.099815,,,,,,,,,,,,,,,,Vici.org,,,"16973",,"39457",,,,,,,,,,,,No
"1000440",Craon,,temple,,Montbouy,FR,47.869492,2.828017,,,,,,,,,,,,,,,,Vici.org,,,"16981","138468","16983",,,,,,,,,,,,No
"1000441",Ruines d'un vieux temple - Membrey,,temple,,Savoyeux,FR,47.5644,5.734408,,,,,,,,,,,,,,,,Vici.org,,,"16983",,,,,,,,,,,,,,No
"1000442",Les Clairs Chênes,,temple,,Faverolles,FR,47.964176,5.222123,,,,,,,,,,,,,,,,Vici.org,,,"16994","177521","17579",,,,,,,,,,,,No
"1000443",Plombières-les-Bains,,temple,,Plombières-les-Bains,FR,47.965816,6.460263,,,,,,,,,,,,,,,,Vici.org,,,"16995",,"20759",,,,,,,,,,,,No
"1000444",Clos du Détour,,temple,,Pannes,FR,47.996143,2.676318,,,,,,,,,,,,,,,,Vici.org,,,"16996",,"20553",,,,,,,,,,,,No
"1000445",La Furetière,,temple,,Entrammes,FR,47.998966,-0.705822,,,,,,,,,,,,,,,,Vici.org,,,"16997",,"20737",,,,,,,,,,,,No
"1000446",Bains-les-Bains,,temple,,Bains-les-Bains,FR,48.001415,6.26457,,,,,,,,,,,,,,,,Vici.org,,,"16999",,"20760",,,,,,,,,,,,No
"1000447",Bouexière,,temple,,Bréal-sous-Montfort,FR,48.049622,-1.900603,,,,,,,,,,,,,,,,Vici.org,,,"17005",,"39091",,,,,,,,,,,,No
"1000448",Trouguer,,temple,,Cléden-Cap-Sizun,FR,48.058224,-4.705246,,,,,,,,,,,,,,,,Vici.org,,,"17006",,"39095",,,,,,,,,,,,No
"1000449",Trogouzel,,temple,,Douarnenez,FR,48.075298,-4.314423,,,,,,,,,,,,,,,,Vici.org,,,"17009",,"39456",,,,,,,,,,,,No
"1000450",Fanum Pithiviers-le-Vieil,,temple,,Pithiviers-le-Vieil,FR,48.163734,2.202981,,,,,,,,,,,,,,,,Vici.org,,,"17014","109248","20635",,,,,,,,,,,,No
"1000451",Juillé,,temple,,Juillé,FR,48.244579,0.12194,,,,,,,,,,,,,,,,Vici.org,,,"17022",,"3650",,,,,,,,,,,,No
"1000452",Oisseau-Le-Petit,,temple,,Oisseau-le-Petit,FR,48.346451,0.075101,,,,,,,,,,,,,,,,Vici.org,,,"17025","69544","18166",,,,,,,,,,,,No
"1000453",La Ferme d'Isle,,temple,,Grisy-sur-Seine,FR,48.433331,3.31667,,,,,,,,,,,,,,,,Vici.org,,,"17029",,"21014",,,,,,,,,,,,No
"1000454",Deneuvre,,temple,,Deneuvre,FR,48.441734,6.73517,,,,,,,,,,,,,,,,Vici.org,,,"17030","108922","1834",,,,,,,,,,,,No
"1000455",Asile des Pêcheurs,,temple,,Taden,FR,48.471024,-2.011823,,,,,,,,,,,,,,,,Vici.org,,,"17032",,"39092",,,,,,,,,,,,No
"1000456",Les Grèves,,temple,,La Villeneuve-au-Châtelot,FR,48.549187,3.606701,,,,,,,,,,,,,,,,Vici.org,,,"17036",,"39451",,,,,,,,,,,,No
"1000457","Nasium, temple",,temple,,Saint-Amand-sur-Ornain,FR,48.632435,5.386586,,,,,,,,,,,,,,,,Vici.org,,,"17043",,"18748",,,,,,,,,,,,No
"1000458",Wasserwald,,temple,,Haegen,FR,48.713898,7.289902,,,,,,,,,,,,,,,,Vici.org,,,"17048","109026","20761",,,,,,,,,,,,No
"1000459",La Butte Ronde,,temple,,Saint-Forget,FR,48.714252,1.984475,,,,,,,,,,,,,,,,Vici.org,,,"17049",,"20895",,,,,,,,,,,,No
"1000460",Arnières-sur-Iton,,temple,,Arnières-sur-Iton,FR,48.999615,1.110515,,,,,,,,,,,,,,,,Vici.org,,,"17064","108757","18147",,,,,,,,,,,,No
"1000461",Les Terres Noires,,temple,,Épiais-Rhus,FR,49.133663,2.085254,,,,,,,,,,,,,,,,Vici.org,,,"17075","108962","18140",,,,,,,,,,,,No
"1000462",Saint-Aubin-sur-Gaillon,,temple,,Saint-Aubin-sur-Gaillon,FR,49.148079,1.32437,,,,,,,,,,,,,,,,Vici.org,,,"17077","109305","18145",,,,,,,,,,,,No
"1000463",Canetonum,,temple,,Berthouville,FR,49.173302,0.621389,,,,,,,,,,,,,,,,Vici.org,,,"17079","108852","18124",,,,,,,,,,,,No
"1000464",Les Régales,,temple,,Louviers,FR,49.246918,1.129583,,,,,,,,,,,,,,,,Vici.org,,,"17081",,"39455",,,,,,,,,,,,No
"1000465",Mare-du-Puits,,temple,,Oissel,FR,49.338657,1.049869,,,,,,,,,,,,,,,,Vici.org,,,"17085",,"39384",,,,,,,,,,,,No
"1000466",Les Essarts,,temple,,Grand-Couronne,FR,49.345848,1.021025,,,,,,,,,,,,,,,,Vici.org,,,"17086",,"39385",,,,,,,,,,,,No
"1000467",Estrées-Saint-Denis,,temple,,Estrées-Saint-Denis,FR,49.4259,2.644821,,,,,,,,,,,,,,,,Vici.org,,,"17093","108968","2144",,,,,,,,,,,,No
"1000468",Les Muguets,,temple,,Songeons,FR,49.564636,1.835476,,,,,,,,,,,,,,,,Vici.org,,,"17100","109349","18132",,,,,,,,,,,,No
"1000469",Ecâtelet,,temple,,Saint-Maur,FR,49.624222,1.906107,,,,,,,,,,,,,,,,Vici.org,,,"17107",,"20259",,,,,,,,,,,,No
"1000470",Le Catillon,,temple,,Rouvroy-les-Merles,FR,49.656013,2.36636,,,,,,,,,,,,,,,,Vici.org,,,"17111","109289","17408",,,,,,,,,,,,No
"1000471",Septeuil,,temple,,Septeuil,FR,48.897812,1.671292,,,,,,,,,,,,,,,,Vici.org,,,"17124","109339","16270",,,,,,,,,,,,No
"1000472",Bois Titran,,temple,,Caix,FR,49.816505,2.646559,,,,,,,,,,,,,,,,Vici.org,,,"17127",,"26629",,,,,,,,,,,,No
"1000473",Le Moulin,,temple,,Fluy,FR,49.854774,2.10009,,,,,,,,,,,,,,,,Vici.org,,,"17136","108987","17409",,,,,,,,,,,,No
"1000474",Cartigny,,temple,,Cartigny,FR,49.904331,3.01797,,,,,,,,,,,,,,,,Vici.org,,,"17148",,"26636",,,,,,,,,,,,No
"1000475",Bracquemont,,temple,,Bracquemont,FR,49.943413,1.123369,,,,,,,,,,,,,,,,Vici.org,,,"17159",,"26649",,,,,,,,,,,,No
"1000476",Ribemont-sur-Ancre,,temple,,Ribemont-sur-Ancre,FR,49.96442,2.55404,,,,,,,,,,,,,,,,Vici.org,,,"17166","109278","17404",,,,,,,,,,,,No
"1000477",Bailleul,,temple,,Bailleul,FR,50.033588,1.87157,,,,,,,,,,,,,,,,Vici.org,,,"17178",,"26624",,,,,,,,,,,,No
"1000478",Les Huit Journaux,,temple,,Beauval,FR,50.132519,2.34789,,,,,,,,,,,,,,,,Vici.org,,,"17188",,"26626",,,,,,,,,,,,No
"1000479",Petit fanum,,temple,,Cocquerel,FR,50.05582,1.938265,,,,,,,,,,,,,,,,Vici.org,,,"17190",,,,,,,,,,,,,,No
"1000480",Le Fief du Bac,,temple,,Proyart,FR,49.887169,2.702727,,,,,,,,,,,,,,,,Vici.org,,,"17191",,"42228",,,,,,,,,,,,No
"1000481",Sanctuary,,temple,,Pont-Sainte-Maxence,FR,49.316475,2.604453,,,,,,,,,,,,,,,,Vici.org,,,"18732",,,,,,,,,,,,,,No
"1000482",Temple,,temple,,Remiencourt,FR,49.779976,2.392164,,,,,,,,,,,,,Gallo-Roman,,,Vici.org,,,"18807",,,,,,,,,,,,,,No
"1000483",Fanum,,temple,,Sorcy-Saint-Martin,FR,48.697834,5.63705,,,,,,,,,,,,,,,,Vici.org,,,"19368",,,,,,,,,,,,,,No
"1000484",Complexe cultuel,,temple,,Amel-sur-l'Étang,FR,49.26498,5.642999,,,,,,,,,,,,,,,,Vici.org,,,"19374",,,,,,,,,,,,,,No
"1000485",Fanum au Pont-Verdunois,,temple,,Lachalade,FR,49.158867,4.960401,,,,,,,,,,,,,,,,Vici.org,,,"19381",,,,,,,,,,,,,,No
"1000486",Temple du Herapel,,temple,,Cocheren,FR,49.152973,6.860515,,,,,,,,,,,,,,,,Vici.org,,,"19418",,,,,,,,,,,,,,No
"1000487",Temple (Les cinq fontaines),,temple,,Laneuveville-devant-Nancy,FR,48.656166,6.215222,,,,,,,,,,,,,,,,Vici.org,,,"19473",,,,,,,,,,,,,,No
"1000488",Lascaux,,temple,,Montignac,FR,45.049168,1.176111,,,,,,,,,,,,,,,,Vici.org,,,"20790",,,,,,,,,,,,,,No
"1000489",Camp celtique,,temple,,Niederbronn-les-Bains,FR,48.969513,7.619184,,,,,,,,,,,,,,,,Vici.org,,,"21801",,,,,,,,,,,,,,No
"1000490",Mithraeum de Sarrebourg,Mithras,mithraeum,,Sarrebourg,FR,48.730274,7.053757,,,,,,,,,,M,,hero,,,,Vici.org,,,"23978",,,,,,,,,,,,,,No
"1000491",Hafentempel Colonia Ulpia Traiana,,temple,,Xanten,DE,51.66938,6.446255,,,,,,,,,,,,,,,,,,Hafentempel,"102",,,,,,,,,,,,,,No
"1000492",Capitolium CCAA,,temple,,Köln,DE,50.934589,6.958396,,,,,,,,,,,,,,,,,,"Tempel voor Jupiter, Juno en Minerva.","357",,,,,,,,,,,,,,No
"1000493",Marstempel CCAA,,temple,,Köln,DE,50.937386,6.958447,,,,,,,,,,,,,,,,,,"Tempel voor Mars, naast de marspoort.","358",,,,,,,,,,,,,,No
"1000494",Temples CCAA,,temple,,Köln,DE,50.934933,6.94602,,,,,,,,,,,,,Gallo-Roman,,,,,"Gallo-romeinse tempels, gelegen aan de stadmuur.","359",,,,,,,,,,,,,,No
"1000495",Matronentempel,,temple,,Nettersheim,DE,50.482342,6.618147,,,,,,,,,,,,,,,,,,"Matronentempel Nettersheim, Kult für Fruchtbarkeits- und Muttergottheiten","4905",,,,,,,,,,,,,,No
"1000496",Temple Görresburg,,temple,,Nettersheim,DE,50.482292,6.618158,,,,,,,,,,,,,Gallo-Roman,,,,,Gallorömischer Umgangstempel Görresburg,"4906",,,,,,,,,,,,,,No
"1000497",Weihetempel,,temple,,Ernzen,DE,49.84346,6.42365,,,,,,,,,,,,,,,,,,,"4907",,,,,,,,,,,,,,No
"1000498",Judenkirchhof - Römischer Tempelbezirk - Pelm,,temple,,Gerolstein,DE,50.230743,6.674787,,,,,,,,,,,,,,,,,,Judenkirchhof - Römischer Tempelbezirk - Pelm -point imported from roscheiderhof.de,"5696",,,,,,,,,,,,,,No
"1000499",Pilgerheiligtum - Sirona-Tempel - Forsthaus Hoch,,temple,,Hochscheid,DE,49.86454,7.232887,,,,,,,,,,,,,,,,,,Pilgerheiligtum von Hochscheid - Sirona-Tempel - Forsthaus Hochscheid -point imported from roscheiderhof.de,"5697",,,,,,,,,,,,,,No
"1000500",Römische Tempelanlage Auf Borstadt - Schleidweiler,,temple,,Zemmer,DE,49.885769,6.658008,,,,,,,,,,,,,,,,,,Römische Tempelanlage Auf Borstadt - Schleidweiler -point imported from roscheiderhof.de,"5699",,,,,,,,,,,,,,No
"1000501",Römische Tempelanlage - Gusenburg,,temple,,Hermeskeil,DE,49.642498,6.925347,,,,,,,,,,,,,,,,,,Römische Tempelanlage - Gusenburg -point imported from roscheiderhof.de,"5700",,,,,,,,,,,,,,No
"1000502",Römische Tempelanlage,,temple,,Schalkenmehren,DE,50.151859,6.843915,,,,,,,,,,,,,,,,,,Römische Tempelanlage - Schalkenmehren -point imported from roscheiderhof.de,"5701",,,,,,,,,,,,,,No
"1000503",Römischer Tempel - Niersbach,,temple,,,DE,49.942722,6.755594,,,,,,,,,,,,,,,,,,Römischer Tempel - Niersbach -point imported from roscheiderhof.de,"5702",,,,,,,,,,,,,,No
"1000504",Römischer Tempelbezirk auf dem Metzenberg - Tawern,,temple,,Nittel,DE,49.664539,6.509661,,,,,,,,,,,,,,,,,,Römischer Tempelbezirk auf dem Metzenberg - Tawern -point imported from roscheiderhof.de,"5703",,,,,de=Römischer_Tempelbezirk_Tawern,Q1460725,,,,,,,,No
"1000505",Römischer Tempelbezirk,,temple,,Nattenheim,DE,50.020042,6.518407,,,,,,,,,,,,,,,,,,Römischer Tempelbezirk - Nattenheim -point imported from roscheiderhof.de,"5704",,,,,,,,,,,,,,No
"1000506",Römischer Tempelbezirk - Otrang,,temple,,Fließem,DE,50.013863,6.546174,,,,,,,,,,,,,,,,,,Römischer Tempelbezirk - Otrang -point imported from roscheiderhof.de,"5705",,,,,,,,,,,,,,No
"1000507",Tempel am Herrenbrünnchen - Neu-Heiligkreuz,,temple,,Trier,DE,49.745407,6.646463,,,,,,,,,,,,,,,,,,Tempel am Herrenbrünnchen - Neu-Heiligkreuz -point imported from roscheiderhof.de,"5707",,,,,,,,,,,,,,No
"1000508",Tempel auf dem Gelände des Mutterhauses - Altstadt,,temple,,Trier,DE,49.754078,6.630699,,,,,,,,,,,,,,,,,,Tempel auf dem Gelände des Mutterhauses - Altstadt -point imported from roscheiderhof.de,"5708",,,,,,Q723125,,,,,,,,No
"1000509",Tempel mit Säulenvorbau - Alt-Heiligkreuz,,temple,,Trier,DE,49.746544,6.642509,,,,,,,,,,,,,,,,,,Tempel mit Säulenvorbau - Alt-Heiligkreuz -point imported from roscheiderhof.de,"5709",,,,,,,,,,,,,,No
"1000510",Tempel mit Vorhalle - Alt-Heiligkreuz,,temple,,Trier,DE,49.746704,6.642539,,,,,,,,,,,,,,,,,,Tempel mit Vorhalle - Alt-Heiligkreuz -point imported from roscheiderhof.de,"5710",,,,,,,,,,,,,,No
"1000511",Tempelanlage Beim Lindenkreuz - Münzschatz,,temple,,Gusterath,DE,49.703876,6.705217,,,,,,,,,,,,,,,,,,Tempelanlage Beim Lindenkreuz - Münzschatz - Gusterath -point imported from roscheiderhof.de,"5711",,,,,,,,,,,,,,No
"1000512",Temple area,,temple,Lindenkreuz,Gusterath,DE,49.703884,6.705037,,,,,,,,,,,,,,Umgangstempel,,,,Tempelanlage Beim Lindenkreuz - Umgangstempel - Gusterath -point imported from roscheiderhof.de,"5712",,,,,,,,,,,,,,No
"1000513",Temple area,,temple,,Neidenbach,DE,50.107349,6.563914,,,,,,,,,,,,,,,,,,Tempelanlage - Neidenbach -point imported from roscheiderhof.de,"5713",,,,,,,,,,,,,,No
"1000514",Temple area,Mars-Lenus,temple,Trier-West,Trier,DE,49.749973,6.613711,,,,,,,,,,,,,,,,,,Tempelbezirk des Lenus Mars - Trier-West -point imported from roscheiderhof.de,"5714",,,,,,,,,,,,,,No
"1000515",Temple area,,temple,,Heckenmünster,DE,49.89975,6.787938,,,,,,,,,,,,,,,,,,Tempelbezirk - Heckenmünster -point imported from roscheiderhof.de,"5715",,,,,,,,,,,,,,No
"1000516",Temple area,,temple,Hinzerath,Morbach,DE,49.855228,7.165844,,,,,,,,,,,,,,,,,,Tempelbezirk - Hinzerath -point imported from roscheiderhof.de,"5716",,,,,,,,,,,,,,No
"1000517",Temple Sanctuary,,temple,Butzweiler,Newel,DE,49.809135,6.606158,,,,,,,,,,,,,,,,,,Tempelheiligtum - Butzweiler -point imported from roscheiderhof.de,"5717",,,,,,,,,,,,,,No
"1000518",Presumed temple area,,temple,,Aach,DE,49.779331,6.582847,,,,,,,,,,,,,,,,,,Vermutete Tempelanlage - Aach -point imported from roscheiderhof.de,"5719",,,,,,,,,,,,,,No
"1000519",Presumed temple area,,temple,,Meckel,DE,49.888115,6.518048,,,,,,,,,,,,,,,,,,Vermutete Tempelanlage - Meckel -point imported from roscheiderhof.de,"5720",,,,,,,,,,,,,,No
"1000520",Presumed temple area,,temple,,Röhl,DE,49.948616,6.576705,,,,,,,,,,,,,,,,,,Vermutete Tempelanlage - Röhl -point imported from roscheiderhof.de,"5721",,,,,,,,,,,,,,No
"1000521",Vermutete Tempelbauten,,temple,,Oberkail,DE,50.032089,6.695539,,,,,,,,,,,,,,,,,,Vermutete Tempelbauten - Oberkail -point imported from roscheiderhof.de,"5722",,,,,,,,,,,,,,No
"1000522",Vermuteter Tempel,,temple,,Bengel,DE,50.040829,7.073928,,,,,,,,,,,,,,,,,,Vermuteter Tempel - Bengel -point imported from roscheiderhof.de,"5723",,,,,,,,,,,,,,No
"1000523",Vermutetes römisches Heiligtum - Tempelhof,,temple,,Mülbach,DE,49.965935,6.390636,,,,,,,,,,,,,,,,,,Vermutetes römisches Heiligtum - Tempelhof -point imported from roscheiderhof.de,"5724",,,,,,,,,,,,,,No
"1000524",Überreste eines Tempels - Grindelborn,,temple,,Mürlenbach,DE,50.141296,6.631656,,,,,,,,,,,,,,,,,,Überreste eines Tempels - Grindelborn -point imported from roscheiderhof.de,"5725",,,,,,,,,,,,,,No
"1000525",Temple and burial precinct,,temple,,Newel,DE,49.810493,6.60087,,,,,,,,,,,,,,Umgangstempel,,,,Umgangstempel und Gräberbezirk - Newel -point imported from roscheiderhof.de,"6087",,,,,,,,,,,,,,No
"1000526",Temple area,,temple,,Homburg,DE,49.297417,7.2925,,,,,,,,,,,,,Gallo-Roman,,,,,,"6324",,,,,,Q1492512,,,,,,,,No
"1000527",Temple of Mercury,,temple,Koblenzer Stadtwald,Koblenz,DE,50.293213,7.570019,,,,,,,,,,,,,,,,,,Merkurtempel Koblenz,"8140",,,,,,,,,,,,,,No
"1000528",Temple area,Mars-Lenus,temple,,Pommern,DE,50.17915,7.286287,,,,,,,,,,,,,,,,,,Tempelbezirk Mars/Lenus,"8141",,,,,,Q1234219,,,,,,,,No
"1000529",Sanctuary - Temple,,temple,,Taunusstein,DE,50.191593,8.204134,,,,,,,,,,,,,,,,,,,"8144",,,,,,,,,,,,,,No
"1000530",Apollo-Grannus-Tempel (Faimingen),,temple,,Lauingen,DE,48.561783,10.409117,,,,,,,,,,,,,,,,,,Apollo-Grannus-Tempel,"8179",,,,,,Q618934,,,,,,,,No
"1000531",Bergheiligtum auf dem Calmont,,temple,,Bremm,DE,50.109138,7.12365,,,,,,,,,,,,,,,,,,,"8182",,"40734",,,,,,,,,,,,No
"1000532",Spring Sanctuary (Sudelfels),,temple,,Wallerfangen,DE,49.336136,6.606687,,,,,,,,,,,,,,,,,,,"8203",,,,,,Q1533630,,,,,,,,No
"1000533",Temple area,,temple,Pesch,Bad Münstereifel,DE,50.533657,6.703,,,,,,,,,,,,,,,,,,Heidentempel,"8205",,,,,,Q1408110,,,,,,,,No
"1000534","Matronenheiligtum ""Vor Hirschberg""",,temple,,Nettersheim,DE,50.502647,6.651904,,,,,,,,,,,,,,,,,,Matronenheiligtum,"8206",,,,,,,,,,,,,,No
"1000535",Mithraeum,Mithras,mithraeum,Halberg,Saarbrücken,DE,49.222488,7.02788,,,,,,,,,,,,,,,,,,,"8220",,,,,,,,,,,,,,No
"1000536",Temple,,temple,,Rheinfelden (Baden),DE,47.57542,7.761292,,,,,,,,,,,,,,,,,,Tempel (Rheinfelden (Baden)),"8249",,,,,,,,,,,,,,No
"1000537",Cult area,,temple,,Sontheim an der Brenz,DE,48.548004,10.290641,,,,,,,,,,,,,,,,,,,"8264",,,,,,,,,,,,,,No
"1000538",Mithraeum,Mithras,mithraeum,,Königsbrunn,DE,48.274055,10.87458,,,,,,,,,,,,,,,,,,Mithras Heiligtum,"8282",,,,,,,,,,,,,,No
"1000539",Römisches Haus,,temple,,Stuttgart,DE,48.762733,9.101792,,,,,,,,,,,,,,,,,,Römisches Haus (Stuttgart),"8419",,,,,,Q1722809,,,,,,,,No
"1000540",Temple of Diana,,temple,,Meßkirch,DE,47.986389,9.053611,,,,,,,,,,,,,,,,,,Dianatempel (Meßkirch),"8420",,,,,,,,,,,,,,No
"1000541",Lapidarium,,temple,,Steinheim an der Murr,DE,48.970776,9.286698,,,,,,,,,,,,,,,,,,Lapidarium (Steinheim / Murr),"8426",,,,,,,,,,,,,,No
"1000542",Spring Sanctuary,,temple,,Holsthum,DE,49.890659,6.442838,,,,,,,,,,,,,Roman,,,,,Römisches Quellheiligtum (Holsthum),"8448",,,,,,,,,,,,,,No
"1000543",Bergheiligtum auf dem Beinter Kopf,,temple,,Zell (Mosel),DE,50.012611,7.178739,,,,,,,,,,,,,,,,,,,"9636",,,,,,,,,,,,,,No
"1000544","Wachtturm 10-37b ""Schneidershecke""",,temple,,Mudau,DE,49.550064,9.128879,,,,,,,,,,,,,,,,,,"Wachtturm 10-37b ""Schneidershecke"" umgebaut zum Tempel","9881",,,,,,,,,,,,,,No
"1000545",Mithraeum,Mithras,mithraeum,,Güglingen,DE,49.061623,9.005662,,,,,,,,,,,,,,,,,,Mithräum (Güglingen),"9968",,,,,,,,,,,,,,No
"1000546",Temple area,,temple,Cambodunum,Kempten (Allgäu),DE,47.727634,10.322745,,,,,,,,,,,,,,,,,,,"9969",,,,,,,,,,,,,,No
"1000547",Temple,,temple,,Badenweiler,DE,47.801346,7.671381,,,,,,,,,,,,,Roman,Podium,,,,Römischer Podiumstempel (Badenweiler),"9970",,,,,,,,,,,,,,No
"1000548",Varnenum,,temple,,Aachen,DE,50.729584,6.193684,,,,,,,,,,,,,,,,,,Tempelbezirk Varnenum,"10018","109411",,,,de=Varnenum,,,,,,,,,No
"1000549",Mithraeum,Mithras,mithraeum,Gimmeldingen,Neustadt an der Weinstraße,DE,49.373943,8.157275,,,,,,,,,,,,,,,,,,,"10019",,,,,,Q1313072,,,,,,,,No
"1000550",Mithraeum,Mithras,mithraeum,Wachstein,Theilenhofen,DE,49.073357,10.832198,,,,,,,,,,,,,,,,,,,"10071",,,,,,,,,,,,,,No
"1000551",Dolichenum Vetoniana,,temple,Pfünz,Walting,DE,48.882706,11.263725,,,,,,,,,,,,,,,,,,,"10087",,,,,,,,,,,,,,No
"1000552",Bergheiligtum,,temple,,Jettenbach,DE,49.543842,7.561576,,,,,,,,,,,,,,,,,,Bergheiligtum (Jettenbach),"10328",,,,,,,,,,,,,,No
"1000553",Mithraeum Pons Aeni,Mithras,mithraeum,,Prutting,DE,47.895569,12.146881,,,,,,,,,,,,,,,,,,,"10422",,,,,,,,,,,,,,No
"1000554",Mithraeum,Mithras,mithraeum,,Riegel am Kaiserstuhl,DE,48.150002,7.746531,,,,,,,,,,,,,,,,,,Mithräum (Riegel am Kaiserstuhl),"10471",,,,,,,,,,,,,,No
"1000555",Temple of Cimbrian Mercury,Mercury,temple,,Heidelberg,DE,49.425861,8.706383,,,,,,,,,,,,,,,,,,,"10493",,,,,,,,,,,,,,No
"1000556",Fossa Sanguinis,,temple,,Neuss,DE,51.183834,6.717542,,,,,,,,,,,,,,,,,,Fossa Sanguinis (Kybele-Kultstätte),"12931",,,,,de=Fossa_Sanguinis,Q1794981,,http://www.neuss.de/tourismus/stadtportrait/sehenswertes/kybele-kultstaette,,,,,,No
"1000557","Maienbühl, Riehen",,temple,,Inzlingen,DE,47.594391,7.68094,,,,,,,,,,,,,,,,,,,"13164",,"38834",,,,,,,,,,,,No
"1000558",Mithraeum,Mithras,mithraeum,Mundelsheim,Besigheim,DE,49.008961,9.210657,,,,,,,,,,,,,,,,,,,"13937",,,,,,,,,,,,,,No
"1000559",Temple,,temple,,Langenau,DE,48.496727,10.119792,,,,,,,,,,,,,,Umgangstempel,,,,Umgangstempel (Langenau),"14194",,,,,,,,,,,,,,No
"1000560",Mithraeum Arnsburg,Mithras,mithraeum,,Lich,DE,50.484314,8.78527,,,,,,,,,,,,,,,,,,,"14208",,,,,,,,,,,,,,No
"1000561",Temple,,temple,Michaelsberg,Cleebronn,DE,49.03854,9.04568,,,,,,,,,,,,,,Umgangstempel,,,,,"14218",,,,,,,,,,,,,,No
"1000562",Mountain Sanctuary,,temple,,Gengenbach,DE,48.407143,8.020556,,,,,,,,,,,,,,,,,,Bergheiligtum (Gengenbach),"14246",,,,,,,,,,,,,,No
"1000563",Mithraeum I,Mithras,mithraeum,,Güglingen,DE,49.06266,9.00468,,,,,,,,,,,,,,,,,,Mithräum I (Güglingen),"14249",,,,,,,,,,,,,,No
"1000564",Mithraeum I,Mithras,mithraeum,,Heidelberg,DE,49.415855,8.679235,,,,,,,,,,,,,,,,,,Mitraeum I (Heidelberg),"14253",,,,,,,,,,,,,,No
"1000565",Mithraeum II,Mithras,mithraeum,,Heidelberg,DE,49.413967,8.693815,,,,,,,,,,,,,,,,,,Mitraeum II (Heidelberg),"14254",,,,,,,,,,,,,,No
"1000566",Temple area,,temple,Greinberg,Miltenberg,DE,49.692158,9.241514,,,,,,,,,,,,,,,,,,,"14395",,,,,,,,,,,,,,No
"1000567",Temple,,temple,Orsingen,Orsingen-Nenzingen,DE,47.84251,8.939867,,,,,,,,,,,,,Gallo-Roman,Umgangstempel,,,,,"14441",,,,,,,,,,,,,,No
"1000568",Weihebezirk,,temple,,Osterburken,DE,49.430134,9.425451,,,,,,,,,,,,,,,,,,Weihebezirk (Osterburken),"14445",,,,,,,,,,,,,,No
"1000569",Temple area,,temple,Sumelocenna,Rottenburg am Neckar,DE,48.478004,8.932575,,,,,,,,,,,,,,,,,,,"14452",,,,,,,,,,,,,,No
"1000570",Temple area I,,temple,,Rottweil,DE,48.154785,8.64558,,,,,,,,,,,,,,,,,,Tempelbezirk I (Rottweil),"14458",,,,,,,,,,,,,,No
"1000571",Temple area II,,temple,,Rottweil,DE,48.15276,8.645009,,,,,,,,,,,,,,,,,,Tempelbezirk II (Rottweil),"14459",,,,,,,,,,,,,,No
"1000572",Sanctuary,,temple,,Schorndorf,DE,48.814072,9.508077,,,,,,,,,,,,,,,,,,Heiligtum (Schorndorf),"14465",,,,,,,,,,,,,,No
"1000573",Merkurheiligtum (Sauhag),,temple,,Neuhausen auf den Fildern,DE,48.673996,9.293082,,,,,,,,,,,,,,,,,,,"14482",,,,,,,,,,,,,,No
"1000574",Tempel (Unterböbingen),,temple,,Böbingen an der Rems,DE,48.817959,9.92597,,,,,,,,,,,,,,,,,,,"14492",,,,,,,,,,,,,,No
"1000575",Sanctuary (St. Johann),,temple,,Rheinstetten,DE,48.952354,8.365316,,,,,,,,,,,,,,,,,,,"14534",,,,,,,,,,,,,,No
"1000576",Temple,,temple,,Gemmrigheim,DE,49.013542,9.176175,,,,,,,,,,,,,,,,,,Tempel (Gemmrigheim),"14596",,,,,,,,,,,,,,No
"1000577",Temple on the Kalkarberg,,temple,,Kalkar,DE,51.728806,6.285232,,,,,,,,,,,,,,,,,,Sanctuary of the local goddess Vagdavercustis,"14930",,,,,,,,,,,,,,No
"1000578",Temple,,temple,,Miltenberg,DE,49.702648,9.236975,,,,,,,,,,,,,,,,,,Tempel (Miltenberg),"14991",,,,,,,,,,,,,,No
"1000579",Mithraeum (Ober-Florstadt),Mithras,mithraeum,,Florstadt,DE,50.325161,8.875741,,,,,,,,,,,,,,,,,,,"15079",,,,,,,,,,,,,,No
"1000580",Sanctuary (Heidenpütz),,temple,,Morbach,DE,49.84407,7.072406,,,,,,,,,,,,,,,,,,,"15092",,,,,,,,,,,,,,No
"1000581",Temple,,temple,,Barweiler,DE,50.356865,6.866581,,,,,,,,,,,,,,,,,,Tempel (Barweiler),"15544",,,,,,,,,,,,,,No
"1000582",Sanctuary of Mercury (Gangloff),,temple,,Waldgrehweiler,DE,49.653168,7.706888,,,,,,,,,,,,,,,,,,,"15553",,,,,,,,,,,,,,No
"1000583",Temple of Mercury (Bingen),Mercury,temple,,Bingen am Rhein,DE,49.966831,7.8924,,,,,,,,,,,,,,,,,,,"15671",,,,,,,,,,,,,,No
"1000584",Sanctuary,,temple,,Bitburg,DE,49.977505,6.526544,,,,,,,,,,,,,,,,,,Heiligtum (Bitburg),"15674",,,,,,,,,,,,,,No
"1000585",Temple of the Matronae,Matronae,temple,,Xanten,DE,51.664839,6.444823,"39",NE,,,,,,,,F,,god,,,,,,Tempel voor de moedergodinnen,"15679",,,,,,,,,,,,,,Yes
"1000586",Temple area,,temple,Brachtendorf,Dünfus,DE,50.218475,7.2154,,,,,,,,,,,,,Gallo-Roman,,,,,,"15681",,,,,,,,,,,,,,No
"1000587",Temple (Heidenkopf),,temple,,Breitenbach,DE,49.434444,7.288409,,,,,,,,,,,,,,,,,,,"15686",,,,,,,,,,,,,,No
"1000588",Temple (Lohrsdorf),,temple,,Bad Neuenahr-Ahrweiler,DE,50.552776,7.193636,,,,,,,,,,,,,,,,,,,"16281",,,,,,,,,,,,,,No
"1000589",Spring Sanctuary Kasbruch,,temple,,Neunkirchen,DE,49.337135,7.213664,,,,,,,,,,,,,Gallo-Roman,,,,,,"16336",,,,,,,,,,,,,,No
"1000590",Mithraeum,Mithras,mithraeum,,Xanten,DE,51.659077,6.462894,,,,,,,,,,,,,,,,,,,"17413",,,,,,,,,,,,,,No
"1000591",Temple,,temple,,Aachen,DE,50.775005,6.085007,,,,,,,,,,,,,,,,,,,"18766",,,,,,,,,,,,,,No
"1000592",Temple,,temple,Straß,Nersingen,DE,48.411995,10.137369,,,,,,,,,,,,,Gallo-Roman,Umgangstempel,,,,,"18940",,,,,,,,,,,,,,No
"1000593",(K)ein Mithrasheiligtum (Saalburg),Mithras,mithraeum,,Bad Homburg vor der Höhe,DE,50.268448,8.568121,,,,,,,,,,,,,,,,,,,"19406",,,,,,,,,,,,,,No
"1000594",Mithraeum,Mithras,mithraeum,,Dieburg,DE,49.90197,8.846936,,,,,,,,,,,,,,,,,,Mithräum (Dieburg),"19431",,,,,,,,,,,,,,No
"1000595",Sanctuary,,temple,,Mainz,DE,49.985161,8.180348,,,,,,,,,,,,,Roman,,,,,,"20237",,,,,,,,,,,,,,No
"1000596",Brandopferplatz,,temple,,Erkheim,DE,48.047626,10.373531,,,,,,,,,,,,,,,,,,,"20289",,,,,,,,,,,,,,No
"1000597",Rosmerta-Tempel,,temple,,Andernach,DE,50.439079,7.389761,,,,,,,,,,,,,,,,,,Rosmerta-Tempel (Andernach),"20349",,,,,,,,,,,,,,No
"1000598",Temple,,temple,,Neumagen-Dhron,DE,49.841267,6.899114,,,,,,,,,,,,,,,,,,Tempel (Neumagen-Dhron),"20350",,,,,,,,,,,,,,No
"1000599",Temple,,temple,,Piesport,DE,49.863735,6.923764,,,,,,,,,,,,,,,,,,Tempel (Piesport),"20351",,,,,,,,,,,,,,No
"1000600",Sironatempel,,temple,,Stipshausen,DE,49.850479,7.291307,,,,,,,,,,,,,,,,,,Sironatempel (Stipshausen),"20363",,,,,,,,,,,,,,No
"1000601",Temple of Mercury,,temple,Lemberg,Feilbingert,DE,49.785912,7.768484,,,,,,,,,,,,,,,,,,,"20366",,,,,,,,,,,,,,No
"1000602",Mithraeum,Mithras,mithraeum,,Rockenhausen,DE,49.628971,7.806087,,,,,,,,,,,,,,,,,,Mithrasheiligtum (Rockenhausen),"20367",,,,,,,,,,,,,,No
"1000603",Temple,,temple,,Bonn,DE,50.726795,7.085428,,,,,,,,,,,,,Gallo-Roman,,,,,,"20381",,,,,,,,,,,,,,No
"1000604",Mithraeum,Mithras,mithraeum,,Wiesbaden,DE,50.084049,8.238866,,,,,,,,,,,,,,,,,,Mithras-Heiligtum (aufgedeckt in den Jahren 1902/03),"20705",,,,,,,,,,,,,,No
"1000605",Mithraeum,Mithras,mithraeum,,Großkrotzenburg,DE,50.081806,8.977619,,,,,,,,,,,,,,,,,,Mithrasheiligtum (Großkrotzenburg),"21413",,,,,,,,,,,,,,No
"1000606",Forum Augusta Vindelicum,,temple,,Augsburg,DE,48.37579,10.900263,,,,,,,,,,,,,,,,,,Forum,"22882",,,,,,,,,,,,,,No
"1000607",Temple,,temple,,Elsdorf,DE,50.935829,6.581988,,,,,,,,,,,,,Gallo-Roman,Umgangstempel,,,,8x10 meter groot tempelgebouw,"23034",,,,,,,,,,,,,,No
"1000608",Heidentempel Kreuzweingarten,,temple,,Euskirchen,DE,50.613701,6.79086,,,,,,,,,,,,,,,,,,,"23244",,,,,,,,,,,,,,No
"1000609",Tempelsäulen,,temple,,Mainz,DE,50.001255,8.268003,,,,,,,,,,,,,,,,,,Heiligtum der Isis und Mater Magna – Mogontiacum – Mainz,"23672",,,,place=mogontiacum-mainz/mogontiacum-mainz-photos/mainz-temple-of-isis,,,,,,,,,,No
"1000610",Tempelreste,,temple,,Bonn,DE,50.733246,7.100145,,,,,,,,,,,,,,,,,,Matronentempel – Bonna – Bonn,"23674",,,,,,,,,,,,,,No
"1000611",Temple Ulpia Noviomagus,,temple,,Kreis,DE,51.367474,6.611528,,,,,,,,,,,,,,,,,,Tempel – Gelduba – Gellep,"24560",,,,,,,,,,,,,,No
"1000612",Temple Ziegetsberg,,temple,,Regensburg,DE,48.99202,12.069141,,,,,,,,,,,,,,,,,,Merkurtempel,"26487",,,,,,,,,,,,,,No
"1000613",Capitolium,"Jupiter, Juno, Minerva",temple,,Abthugni,TN,,,"90",E,,,,,,,,M/F,,god,Roman,,yes,,,,,,,,,,,,,,,,,,
"1000614",Temple of Artemis Amarysia,Artemis,temple,,Amarynthos,GR,38.3871,23.9089,,,,,,,,,,F,,god,Greek,,,,,,,,,,,,,,,,,,,,
"1000615",Temple of Zeus,Jupiter,temple,,Aizanoi,TR,39.201218,29.609631,,,,,,,,,,M,,god,Greek,,yes,,,,,,,,,Aizanoi#Temple_of_Zeus,,,,,,,,,
"1000616",Temple of Jupiter,Jupiter,temple,,Split,HR,43.508341,16.439568,,,,,,,,,,M,,god,Roman,,yes,,,,"18128",,,,,"Temple_of_Jupiter,_Split",Q4501094,,,,,,,,Yes
"1000617",Temple of Bacchus,Bacchus,temple,,Baalbek,LB,34.006143,36.203873,,,,,,,,,,M,,god,Roman,,,,,,"7852",,,,place/heliopolis-baalbek/baalbek-photos/baalbek-temple-of-bacchus/,Temple_of_Bacchus,Q1991217,,,,,,,,
"1000618",Temple of Venus,Venus,temple,,Baalbek,LB,34.006021,36.20623,,,3rd c. AD,,,"3",,,,F,,god,Roman,,,,,,"16416",,,,,,,,,,,,,,
"1000619",Temple of Artemis,Artemis,temple,,Jerash,JO,32.281952,35.890922,,,2nd c. AD,,,"2",,,,F,,god,Roman,,yes,wikipedia,,,"11889",,,,,"Temple_of_Artemis,_Jerash",Q2527347,,,,,,,,
"1000620",Temple of Jupiter,Jupiter,temple,,Jerash,JO,32.276571,35.889929,,,,,,,,,,M,,god,Roman,,yes,wikipedia,,,"11888",,,,,,,,,,,,,,
"1000621",Capitolium,"Jupiter, Juno, Minerva",temple,,Dougga,TU,36.422891,9.218169,,,2nd c. AD,,,"2",,,,M/F,,god,Roman,,yes,wikipedia,,,"7877",,,,,,Q11680511,,,,,,,,
"1000622",Temple of Juno Caelestis,Juno,temple,,Dougga,TU,36.422903,9.215682,,,,,,,,,,F,,god,Roman,,yes,vici,,,"11586",,,,,es=Templo_de_Juno_Caelestis,Q5397577,,,,,,,,
