"id","name","dedicatee","type","location","modernplace","ancientplace","pleiadesplace","country","latitude","longitude","orientation","compass","vowed","date","startdateearly","startdatelate","century","enddate","preceded","succeeded","sex","dedicationday","deitytype","culture","style","extant","source","meetings","note","vici","pleiades","dare","arachne","livius","wikipedia","wikidata","digitalromanforum","digitalesforumromanum","trismegistos","ads","cona","topostext","url","checked"
"1000001","Temple of Aesculapius","Aesculapius","temple","Tiber Island","Rome","Rome","423025","IT","41.890278","12.478333","","","-292","-291","-291","","-3","","","","M","January 1","hero","Roman","","","Ziolkowski","","","23444","","","","","Temple_of_Asclepius,_Rome","Q3983243","","","","","","419125SAsc"
"1000002","Temple of Apollo Palatinus","Apollo","temple","Palatine Hill","Rome","Rome","423025","IT","41.888854","12.485741","227","SW","","-28","-28","","-1","","","","M","","god","Roman","","","Blake, Stamper","","","","","","8606","","Temple_of_Apollo_Palatinus","Q1236860","","","","","","419125SApP"
"1000003","Temple of Apollo Sosianus/Medicus","Apollo","temple","Circus Flaminius","Rome","Rome","423025","IT","41.8923136","12.4795912","180","S","","-431","-431","","-5","","","","M","September 23","god","Roman","","","Stamper","senate","vici.org; coords modified","15038","740034026","","5665","","Temple_of_Apollo_Sosianus","Q582353","","","","","","419125SApo"
"1000004","Temple of Bellona","Bellona","temple","Circus Flaminius","Rome","Rome","423025","IT","41.89238","12.47989","180","S","-296","-292-280","-292","-280","-3","","","","F","June 3","god","Roman","","","Ziolkowski","senate","","","","","3467477","","Temple_of_Bellona,_Rome","Q2595680","","","","","","419125SBel"
"1000005","Temple of Bona Dea","Bona Dea","temple","Lesser Aventine","Rome","Rome","423025","IT","41.880581","12.48979","","","","","-123","","-2","","","","F","May 1","god","Roman","","","Blake/Ziolkowski"
"1000007","Temple of Castor(es)","Castor(es)","temple","Forum","Rome","Rome","423025","IT","41.891773","12.485755","24","NE","","-484","-484","","-5","","","","M","January 27/July 15","hero","Roman","","","blake","senate","Vici.org","15011","","","5807","","","Q380530","","","","","","419125SCas"
"1000008","Temple of Castor and Pollux","Castor, Pollux","temple","Circus Flaminius","Rome","Rome","423025","IT","41.8923","12.477","30","NE","","-179-91","-179","-91","-2","","","","M","August 13","hero","Roman","","","Coarelli","","","","","","4052753"
"1000009","Temple of Ceres and Faustina","Ceres, Faustina","temple","","Rome","Rome","423025","IT","41.857844","12.524306","","","","","","","","","","","F","","god, family","Roman","","","","","Vici.org, DARE","","422889","22917"
"1000010","Temple of Ceres, Liber, and Libera","Ceres, Liber, Libera","temple","Aventine","Rome","Rome","423025","IT","","","","","","-493","-493","","-5","","","","M/F","","god","Roman","","","","","","","","","","","Sanctuary_of_Ceres,_Liber_and_Libera","Q3949870","","","","","","419125SCer"
"1000011","Temple","","temple","Cessati Spiriti","Rome","Rome","423025","IT","41.862522","12.533184","","","","","","","","","","","","","","Roman","","","","","DARE","","422892"
"1000012","Temple of the Divine Claudius","Claudius","temple","Caelian Hill","Rome","Rome","423025","IT","41.887594","12.493367","","","","40-60","40","60","1","","","","M","","emperor","Roman","","","","","","","","","6228","","Temple_of_Claudius","","","","","","","419125SCla"
"1000013","Temple of Concord","Concord","temple","Forum","Rome","Rome","423025","IT","41.89293","12.484245","123","SE","","-121","-121","","-2","","","","F","22 July/16 January","concept","Roman","","","Blake","senate","","","","","5742","","","","","","","","","419125SCon"
"1000014","Temple of Cybele/Magna Mater","Cybele/Magna Mater","temple","Palatine Hill","Rome","Rome","423025","IT","41.889554","12.484984","203","SW","","-191","-191","","-2","","","","F","April 11","god","Roman","","","Stamper","senate","Vici.org","17956","","","9110","","Temple_of_Cybele_(Palatine)","Q383609","","","","","","419125SMMT"
"1000015","Temple of Dea Dia","Dea Dia","temple","","Rome","Rome","423025","IT","41.83614","12.44195","","","","","","","","","","","F","","god","Roman","","","","","DARE","","422916","37153"
"1000016","Temple of Diana","Diana","temple","Aventine","Rome","Rome","423025","IT","41.882828","12.483194","","","","-499-400","-499","-400","-5","","","","F","August 13","god","Roman"
"1000017","Temple of the Divine Antoninus and the Divine Faustina","Antoninus, Faustina","temple","Forum","Rome","Rome","423025","IT","41.892139","12.486689","217","SW","","141","141","","2","","","","M/F","","emperor, family","Roman","","","Blake","","Vici.org","15009","","","5645","","Temple_of_Antoninus_and_Faustina","Q752555","","","","","","419125SFas"
"1000018","Temple of the Divine Augustus","Augustus","temple","","Rome","Rome","423025","IT","41.891616","12.484471","","","","","","","","","","","M","","emperor","Roman","","","Blake","","","","","","5743","","Temple_of_Divus_Augustus","Q927222","","","","","","419125SDAT"
"1000019","Temple of the Divine Julius","Julius","temple","Forum","Rome","Rome","423025","IT","41.891943","12.486246","300","NW","","-29","-29","","-1","","","","M","August 18","emperor","Roman","","","Stamper","","","15048","","","5744","","","Q1133288","","","","","","419125SJul"
"1000020","Temple of the Divine Romulus","Romulus","temple","Forum","Rome","Rome","423025","IT","41.891846","12.487166","205","SW","","","","","","","","","M","","hero","Roman","","","","","Vici.org","15044","","","10545","","Temple_of_Romulus","","","","","","","419125SRom"
"1000021","Temple of the Divine Trajan","Trajan","temple","Forum of Trajan","Rome","Rome","423025","IT","","","","","","128","128","","2","","","","M","","emperor","Roman","","","Stamper"
"1000022","Temple of Elagabal","Elagabal","temple","","Rome","Rome","423025","IT","41.889603","12.488894","","","","","","","","","","","M","","emperor","Roman","","","","","Vici.org","11503"
"1000023","Temple of Feronia","Feronia","temple","Campus Martius","Rome","Rome","423025","IT","41.895163","12.476723","90","E","-292-219","-292-219","-292","-219","-3","","","","F","November 13","god","Roman","","","Stamper/Ziolkowski","","Pleiades: Temple C","39266","","","5865","","","Q1541068"
"1000024","Temple of Fides","Fides","temple","Capitoline","Rome","Rome","423025","IT","41.8914","12.4812","","","","-254","-254","","-3","","","","F","October 1","concept","Roman","","","Ziolkowski","senate","","","","","","","Temple_of_Fides","Q3983246"
"1000025","Temple of Flora","Flora","temple","Circus Maximus","Rome","Rome","423025","IT","","","","","","-240","-240","","-3","","","","F","April 28","nature","Roman","","","","","","","","","","","Temple_of_Flora","Q3983248"
"1000026","Temple of Flora","Flora","temple","Quirinal Hill","Rome","Rome","423025","IT","","","","","","-292-219","-292","-219","-3","","","","F","May 3","nature","Roman"
"1000027","Temple of Fons/Fontus","Fons/Fontus","temple","extra portam fontinalem","Rome","Rome","423025","IT","","","","","","-231","-231","-219","-3","","","","M","October 13","nature","Roman"
"1000028","Temple of Fors Fortuna","Fors Fortuna","temple","Right bank of Tiber","Rome","Rome","423025","IT","","","","","","-293","-292","-280","-3","","","","F","","concept","Roman","","","","","Vici.org","","422925"
"1000029","Temple of Fortuna Huiusce Diei","Fortuna","temple","Campus Martius","Rome","Rome","423025","IT","41.895387","12.476839","90","E","","1-99","1","99","1","","","","F","","concept","Roman","","yes","Stamper","","Pleiades: Temple B","39264","635795593","","6515","","","","","","","","","419125SFor"
"1000030","Temple of Fortuna","Fortuna","temple","Forum Boarium","Rome","Rome","423025","IT","41.890791","12.481069","183","S","","-396","-396","","-4","","","","F","","concept","Roman","","","Platner and Ashby"
"1000031","Temple of Fortuna Muliebris","Fortuna","temple","","Rome","Rome","423025","IT","41.843745","12.555806","","","","","","","","","","","F","","concept","Roman","","","","","DARE","","","37154"
"1000032","Temple of the Divine Hadrian","Hadrian","temple","Campus Martius","Rome","Rome","423025","IT","41.899876","12.479621","90","E","","145","145","","2","","","","M","","emperor","Roman","","","Blake","","Vici.org","15032","","","5651","","Temple_of_Hadrian","Q431062","","","","","","419125SHad"
"1000033","Temple of Hercules Magnus Custos","Hercules","temple","Circus Flaminius","Rome","Rome","423025","IT","","","","","-225-223","-220","-220","","-3","","","","M","June 4","hero","Roman","","","Ziolkowski","","Pleiades"
"1000034","Temple of Hercules Musarum","Hercules","temple","Circus Flaminius","Rome","Rome","423025","IT","41.8931188","12.477733","208","SW","","-187","-187","","-2","","","","M","June 30","hero","Roman","","","Arachne","","","","","","3467458"
"1000035","Temple of Hercules Victor","Hercules","temple","ad portam trigeminam","Rome","Rome","423025","IT","41.8887057","12.4806393","93","E","","-142","-142","","-2","","","","M","","hero","Roman","","yes","","","","15006","825969667","","10771","","Temple_of_Hercules_Victor","Q576929","","","","","","419125SHrc"
"1000036","Temple of Hercules Victor","Hercules","temple","","Tivoli","Tibur","423081","IT","41.963553","12.792638","246","SW","","-89-82","-89","-82","-1","","","","M","","hero","Roman","","","Stamper"
"1000037","Temple of Hercules Invictus (Victor)","Hercules","temple","ad circum maximum","Rome","Rome","423025","IT","","","","","-292-219","-292","-219","","-3","","","","M","August 13","hero","Roman"
"1000038","Temple of Honos and Virtus","Honor, Virtue","temple","ad Portam Capenam","Rome","Rome","423025","IT","","","","","-222","-205","-205","","-3","","","1000154","F","July 17","concept","Roman","","","","senate"
"1000039","Temple","","temple","Il Torraccio","Rome","Rome","423025","IT","41.994283","12.492366","","","","","","","","","","","","","","Roman","","","","","DARE","","3467477","37165"
"1000040","Temple of Isis","Isis","temple","via Labicana","Rome","Rome","423025","IT","41.890049","12.501237","","","","","","","","","","","F","","god","Roman","","","","","Pleiades","19353","","","","","","Q16612725"
"1000041","Temple of Isis/Serapis","Isis/Serapis","temple","Campus Martius","Rome","Rome","423025","IT","41.897221","12.479167","","","","","","","","","","","F","","god","Roman","","","Blake","","Pleiades","17963","","","","","Temple_of_Isis_and_Serapis","Q2288275","","","","","","419125SIsS"
"1000042","Temple of Janus","Janus","temple","Forum Holitorium","Rome","Rome","423025","IT","41.891289","12.479947","71","E","-260","-260","-240","","-3","","","","M","August 17","god","Roman","","","","","","","","","10761","","Temple_of_Janus_(Forum_Holitorium)","Q3983253"
"1000043","Temple of Juno Curritis","Juno","temple","Campus Martius","Rome","Rome","423025","IT","41.894862","12.476906","","","","-292-219","-292","-219","-3","","","","F","October 7","god","Roman","","","Ziolkowski"
"1000044","Temple of Juno Lucina","Juno","temple","Esquiline Hill","Rome","Rome","423025","IT","","","","","","-375","-375","","-4","","","","F","March 1","god","Roman","","","Ziolkowski"
"1000045","Temple of Juno Moneta","Juno","temple","Capitoline Hill","Rome","Rome","423025","IT","41.894009","12.483497","","","-345","-344","-344","","-4","","","","F","June 1","god","Roman","","","","","","","","","3910432","","Temple_of_Juno_Moneta","Q951089","","","","","","419125SJuM"
"1000046","Temple of Juno Regina","Juno","temple","Aventine Hill","Rome","Rome","423025","IT","41.88444","12.47972","","","-396","-392","-392","","-4","","","","F","September 1","god","Roman","","","Ziolkowski"
"1000047","Temple of Juno Regina","Juno","temple","Circus Flaminius","Rome","Rome","423025","IT","41.893141","12.478602","208","SW","","-179","-179","","-2","","","","F","December 23","god","Roman","","","","","","","","","3467454"
"1000048","Temple of Juno Sospita","Juno","temple","Forum Holitorium","Rome","Rome","423025","IT","41.891093","12.479937","71","E","","-197-194","-197","-194","-2","","","","F","February 1","god","Roman","","","","","","","","","","","","","","","","","","419125SJuS"
"1000049","Temple of Jupiter","Jupiter","temple","","Rome","Rome","423025","IT","41.840026","12.536854","","","","","","","","","","","M","","god","Roman","","","","","DARE","","","37156"
"1000050","Capitolium","Jupiter, Juno, Minerva","temple","","Jerusalem","Ierusalem","687928","IL","31.776306","35.235619","349","N","","130","130","","2","","","","M/F","","god","Roman","","no"
"1000051","Temple of Jupiter Damascenus","Jupiter","temple","","Damascus","Damascus","678106","SY","33.510833","36.300833","","","","14","14","","1","","","","M","","god","Roman","","yes","Segal2013","","","","245122016"
"1000052","Temple of Jupiter","Jupiter","temple","","Yabrud","Iabrouda","678196","SY","33.966667","36.666667","","","","","","","","","","","M","","god","Roman"
"1000053","Temple of Jupiter Heliopolitanus","Jupiter","temple","","Baalbek","Heliopolis","678179","LB","34.006839","36.203397","76","E","","135","135","","2","","","","M","","god","Roman","","yes","","","","16415","","","","place/heliopolis-baalbek/baalbek-photos/baalbek-temple-of-jupiter/","Temple_of_Jupiter_(Roman_Heliopolis)","Q21079381","","","","","","","","yes"
"1000054","Temple of Jupiter Anxur","Jupiter","temple","","Terracina","Tarracina","433143","IT","41.290787","13.26011","175","S","","","","","","","","","M","","god","Roman","","","","","Coord from Google maps","10868","433143","42343","","","","Q3983252","","","","","","413133SJAn"
"1000055","Temple of Jupiter Conservator","Jupiter","temple","Capitoline Hill","Rome","Rome","423025","IT","","","","","","","","","","","","","M","","god","Roman","","","Stamper"
"1000056","Temple of Jupiter Custos","Jupiter","temple","Capitoline Hill","Rome","Rome","423025","IT","41.891825","12.481892","","","","","","","","","","","M","","god","Roman"
"1000057","Temple of Jupiter Dolichenus","Jupiter","temple","Aventine Hill","Rome","Rome","423025","IT","41.88319","12.4804","","","","","","","","","","","M","","god","Roman","","","Blake","","Location from Arachne","","","","6074"
"1000058","Temple of Jupiter Feretrius","Jupiter","temple","Capitoline Hill","Rome","Rome","423025","IT","","","","","","-752-751","-752","-751","-8","","","","M","","god","Roman"
"1000059","Temple of Jupiter Heliopolitanus","Jupiter","temple","Janiculum","Rome","Rome","423025","IT","","","","","","late 1st c. CE","75","100","1","","","","M","November 29","god","Roman","","","Blake"
"1000060","Temple of Jupiter Invictus","Jupiter","temple","Palatine Hill","Rome","Rome","423025","IT","","","","","","-180-167","-180","-167","-2","","","","M","","god","Roman","","","Ziolkowski"
"1000061","Temple of Jupiter Libertas","Jupiter","temple","Aventine Hill","Rome","Rome","423025","IT","","","","","","-246","-246","","-3","","","","M","April 13","god","Roman","","","Ziolkowski"
"1000062","Temple of Jupiter Capitolinus/Optimus Maximus","Jupiter","temple","Capitoline Hill","Rome","Rome","423025","IT","41.892222","12.481667","152","SE","","-509","-509","","-6","","","","M","September 13","god","Roman","","","Blake","senate","","17971","871801169","","3910430","","Temple_of_Jupiter_Optimus_Maximus","Q586468","","","","","","419125SJCa"
"1000063","Temple of Jupiter Patulaeius","Jupiter","temple","","Ostia Antica","Ostia","422995","IT","","","","","","-299-200","-299","-200","-3","","","","M","","god","Roman"
"1000064","Temple of Jupiter","Jupiter","temple","","Pompei","Pompeii","433032","IT","40.7499","14.4845","157","SE","","mid-2nd c. BCE","-175","-125","-2","","","","M","","god","Roman","","yes","","","","","367026512"
"1000066","Temple of Jupiter Stator","Jupiter","temple","ad portam Mugoniam","Rome","Rome","423025","IT","41.890487","12.488793","","","-294","-294","-292","-218","-3","","","","M","June 27","god","Roman","","","","senate","Tenative coordinates"
"1000067","Temple of Jupiter Stator","Jupiter","temple","Porticus Metelli, Circus Flaminius","Rome","Rome","423025","IT","41.892897","12.479021","208","SW","","-146","-146","","-2","","","","M","","god","Roman"
"1000068","Temple of Jupiter Tonans","Jupiter","temple","Capitoline Hill","Rome","Rome","423025","IT","","","","","","-22","-22","","-1","","","","M","September 1","god","Roman"
"1000069","Temple of Jupiter Victor","Jupiter","temple","Quirinal Hill","Rome","Rome","423025","IT","","","","","-295","-292-219","-295","-291","-3","","","","M","April 13","god","Roman","","","Blake"
"1000070","Temple of Jupiter/Baalshamin","Jupiter, Baalshamin","temple","","Kedesh","Kadasa","678215","IL","33.112906","35.531175","","","","","","","","","","","M","","god","Roman"
"1000071","Temple of Juturna","Juturna","temple","Campus Martius","Rome","Rome","423025","IT","41.895664","12.476876","90","E","-242","-242-219","-242","-219","-3","","","","F","January 11","god","Roman","","","Ziolkowski","","Pleiades: Temple A","39261","","","5864","","","","","","","","","419125SFer"
"1000072","Temple of Juventas","Juventas","temple","Circus Maximus","Rome","Rome","423025","IT","","","","","","-193","-193","","-2","","","","F","","concept","Roman"
"1000073","Temple of the Lares","Lares","temple","in summa Sacra Via","Rome","Rome","423025","IT","","","","","","-292-219","-292","-219","-3","","","","M","June 27","god","Roman"
"1000074","Temple of the Lares Permarini","Lares Permarini","temple","Campus Martius","Rome","Rome","423025","IT","41.894983","12.476957","90","E","","-179","-179","","-2","","","","M","","god","Roman","","","","","Pleiades: Temple D","39263","","","6516","","","","","","","","","419125SLPe"
"1000075","Temple of Luna","Luna","temple","Aventine Hill","Rome","Rome","423025","IT","","","","","","-292-219","-292","-219","-3","","","","F","March 31","nature","Roman"
"1000076","Temple of Mars","Mars","temple","Circus Flaminius","Rome","Rome","423025","IT","","","","","","-138","-138","","-2","","","","M","","god","Roman","","","","","","","","","","","Temple_of_Mars"
"1000077","Temple of Mars","Mars","temple","North Via Appia","Rome","Rome","423025","IT","","","","","-390","-388","-388","","-4","","","","M","June 1","god","Roman"
"1000078","Temple of Mars Ultor","Mars","temple","Forum of Augustus","Rome","Rome","423025","IT","41.894444","12.486944","233","SW","","-2","-2","","-1","","","","M","","god","Roman","","","Stamper","","","","","","5747","","it=Tempio_di_Marte_Ultore","Q679665","","","43987","","","419125SMUl"
"1000079","Temple of Mater Matuta","Mater Matuta","temple","Forum Boarium","Rome","Rome","423025","IT","41.89081","12.481398","183","S","","-368","-368","","-4","","","","F","June 11","god","Roman","","","Stamper","","","","","","","","","","","","","","","419125SMMa"
"1000080","Temple of Matidia","Matidia","temple","Campus Martius","Rome","Rome","423025","IT","41.899964","12.478081","","","","119","119","","2","","","","F","","family","Roman","","","Stamper"
"1000081","Mausoleum of Romulus","","tomb","","Rome","Rome","423025","IT","41.8550631","12.5181785","","","","early 4th c. CE","","","4","","","","","","hero","Roman","","","","","DARE","","","23842"
"1000082","Temple of Mercury","Mercury","temple","Aventine Hill","Rome","Rome","423025","IT","","","","","","-495","-495","","-5","","","","M","","god","Roman"
"1000083","Temple of Minerva","Minerva","temple","Aventine Hill","Rome","Rome","423025","IT","","","","","-263-262","-263-260","-263","-260","-3","","","","F","June 19","god","Roman","","","","","Vici.org"
"1000084","Temple of Minerva Medica","Minerva","temple","Esquiline Hill","Rome","Rome","423025","IT","","","","","","-399-300","-399","-300","-4","","","","F","","god","Roman"
"1000085","Temple of Minerva","Minerva","temple","Forum of Nerva","Rome","Rome","423025","IT","41.893664","12.487089","228","SW","","","","","","","","","F","","god","Roman","","","Arachne","","","","","","8405"
"1000086","Mithraeum Barberini","Mithras","mithraeum","","Rome","Rome","423025","IT","41.902964","12.4891","","","","","","","","","","","","","","Roman","","","","","DARE","","","45672"
"1000087","Mithraeum of Orazio Muti","Mithras","mithraeum","","Rome","Rome","423025","IT","41.89981","12.485662","","","","","","","","","","","","","","Roman","","","","","DARE","","","45673"
"1000088","Mithraeum of San Clemente","Mithras","mithraeum","","Rome","Rome","423025","IT","41.889675","12.497281","","","","","","","","","","","","","","Roman","","","","","Vici.org; DARE","23522","","45666"
"1000089","Mithraeum of Santa Prisca","Mithras","mithraeum","","Rome","Rome","423025","IT","41.883213","12.483655","","","","","","","","","","","","","","Roman","","","","","DARE","","","45667"
"1000090","Mithraeum of Santo Stefano Rotondo","Mithras","mithraeum","","Rome","Rome","423025","IT","41.884655","12.496744","","","","","","","","","","","","","","Roman","","","","","DARE","","","45669"
"1000091","Mithraeum of the Baths of Caracalla","Mithras","mithraeum","","Rome","Rome","423025","IT","41.879922","12.493118","","","","","","","","","","","","","","Roman","","","","","DARE","","","45668"
"1000092","Mithraeum of the Campidoglio","Mithras","mithraeum","","Rome","Rome","423025","IT","41.89291","12.482628","","","","","","","","","","","","","","Roman","","","","","DARE","","","45675"
"1000093","Mithraeum of the Circus Maximus","Mithras","mithraeum","","Rome","Rome","423025","IT","41.888114","12.482856","","","","","","","","","","","","","","Roman","","","","","DARE","","","45670"
"1000094","Mithraeum of the Crypta Balbi","Mithras","mithraeum","","Rome","Rome","423025","IT","41.894242","12.479176","","","","","","","","","","","","","","Roman","","","","","DARE; coords updated","","","45674"
"1000095","Mithraeum of the Esquiline","Mithras","mithraeum","","Rome","Rome","423025","IT","41.894894","12.501063","","","","","","","","","","","","","","Roman","","","","","DARE","","","45671"
"1000096","Temple","","temple","Monte del Grano","Rome","Rome","423025","IT","41.865272","12.549292","","","","","","","","","","","","","","Roman","","","","","","","422973"
"1000097","Temple of Neptune","Neptune","temple","Circus Flaminius","Rome","Rome","423025","IT","","","","","-257-229","-257-229","-257","-229","-3","","","","M","December 1","god","Roman","","","","","","","","","3467478","","Temple_of_Neptune_(Rome)","Q2489646","","","","","","419125SNpt"
"1000098","Nymphaeum of the Villa dei Quintili","Nymphs","temple","","Rome","Rome","423025","IT","41.8279699","12.5480362","","","","","","","","","","","F","","god","Roman","","","","","DARE","","","23839"
"1000099","Nymphaeum Septizodium","Nymphs","temple","Campus Martius","Rome","Rome","423025","IT","41.885632","12.488719","","","","","","","","","","","F","","god","Roman","","","","","Vici.org","17962","","","","","","Q1234446"
"1000100","Temple of the Nymphs","Nymphs","temple","","Rome","Rome","423025","IT","41.895163","12.478714","","","","","","","","","","","F","August 23","god","Roman","","","","","","","","","6079"
"1000101","Temple of Ops Opifera","Ops Opifera","temple","Capitoline Hill","Rome","Rome","423025","IT","41.895163","12.478714","","","-250","-250-219","-250","-219","-3","","","","F","August 23","concept","Roman"
"1000102","Temple of Pales","Pales","temple","Palatine Hill","Rome","Rome","423025","IT","","","","","-267","-267-219","-267","-219","-3","","","","F","July 7","god","Roman"
"1000103","Pantheon","Pantheon","temple","Campus Martius","Rome","Rome","423025","IT","41.89856","12.47685","354","N","","126","126","","2","","","","M/F","","god","Roman","","","","","Vici.org","7853","128044615","","5664","","Pantheon,_Rome","Q99309","","","","","700000158","419125SPan"
"1000104","Temple of Pax","Peace","temple","","Rome","Rome","423025","IT","41.8926","12.4876","323","NW","","75","75","","1","","","","F","","concept","Roman","","","","","Orientation = Mars Ultor + 90","","","","","","Temple_of_Peace,_Rome","Q1456939","","","","","","419125SPax"
"1000105","Temple of the Penates","Penates","temple","Velian Hill","Rome","Rome","423025","IT","","","","","","-292-219","-292","-219","-3","","","","M","","god","Roman","","","","","","","","","10557"
"1000106","Temple of Portunus","Portunus","temple","Forum Boarium","Rome","Rome","423025","IT","41.889232","12.480883","347","N","-292-260","-292-260","-292","-219","-3","","","","M","August 17","god","Roman","","","Stamper","","Vici.org; DARE","11602","494660670","22924","5932","rome/rome-photos/rome-temple-of-portunus","Temple_of_Portunus","Q849241","","","","","","419125SFoV"
"1000107","Temple of Quirinus","Quirinus","temple","Quirinal Hill","Rome","Rome","423025","IT","","","","","-325","-293","-293","","-3","","","","M","February 17","god","Roman"
"1000108","Temple of Robigo","Robigo","sanctuary","","Rome","Rome","423025","IT","41.959271","12.447668","","","","","","","","","","","F","","nature","Roman","","","","","DARE","","423024","37158"
"1000109","Temple of Salus","Salus","temple","Quirinal Hill","Rome","Rome","423025","IT","","","","","-311","-303","-303","","-4","","","","F","","concept","Roman"
"1000110","Temple of Saturn","Saturn","temple","Forum","Rome","Rome","423025","IT","41.892468","12.484181","32","NE","","-498","-498","","-5","","","","M","December 17","god","Roman","","","","","Pleiades","15012","","","5644","","Temple_of_Saturn","Q746721","","saturntempel","","","","419125SSat"
"1000111","Temple of Sol","Sol","temple","Campus Agrippae","Rome","Rome","423025","IT","","","","","","273","273","","3","","","","M","","nature","Roman"
"1000112","Temple of Sol and Luna","Sol, Luna","temple","Circus Maximus","Rome","Rome","423025","IT","","","","","","-292-219","-292","-219","-3","","","","M/F","August 28","nature","Roman"
"1000113","Temple of Spes","Spes","temple","Forum Holitorium","Rome","Rome","423025","IT","41.890962","12.480052","71","E","-258-257, -254, -249","-258-249","-258","-249","-3","","","","F","August 1","concept","Roman","","","","","","","","","10760","","","","","","","","","419125SSpe"
"1000114","Temple of Summanus","Summanus","temple","Circus Maximus","Rome","Rome","423025","IT","","","","","","-278-275","-278","-275","-3","","","","M","June 20","god","Roman"
"1000115","Temple of Sybil","Sybil","temple","","Tivoli","Tibur","423081","IT","41.966809","12.800843","","","","-150-125","-150","-125","-2","","","","F","","god","Roman","","","Stamper","","Vici.org"
"1000116","Temple of Tellus","Tellus","temple","Esquiline Hill","Rome","Rome","423025","IT","","","","","-268","-268-219","-268","-219","-3","","","","F","December 13","nature","Roman","","","","senate","","","","","","","Temple_of_Tellus","Q16612739","","","","","","419125STel"
"1000117","Temple of the Tempestates","Tempestates","temple","extra Portam Capenam","Rome","Rome","423025","IT","","","","","-259","-259-240","-259","-240","-3","","","","F","December 23","nature","Roman"
"1000118","Temple","","temple","Campus Martius","S. Salvatore in Campo, Rome","Rome","423025","IT","41.893685","12.474003","121","SE","","","","","","","","","M","","","Roman","","","","","","","","","3467479"
"1000119","Temple of Tiberinus","Tiberinus","temple","Tiber Island","Rome","Rome","423025","IT","","","","","","-292-219","-292","-219","-3","","","","M","December 8","nature","Roman"
"1000120","Tomb of Cecilia Metella","","tomb","Via Appia","Rome","Rome","423025","IT","41.852196","12.520981","","","","","","","","","","","F","","","Roman","","","","","Pleiades; vici.org","","423064"
"1000121","Temple of Veiovis","Veiovis","temple","Inter duos lucos","Rome","Rome","423025","IT","41.892776","12.483611","220","SW","","","","","","","","","M","March 7","god","Roman","","","","","Pleiades","17964","","","1319962","","","Q764141"
"1000122","Temple of Venus and Roma","Venus, Rome","temple","","Rome","Rome","423025","IT","41.890812","12.490168","113","SE","","140-145","140","145","2","","","","F","","god, city","Roman","","","","","Pleiades","15008","","","7481","","Temple_of_Venus_and_Roma","Q430792","","","","","","419125SVeR"
"1000123","Temple of Venus Genetrix","Venus","temple","Forum of Julius","Rome","Rome","423025","IT","41.8942","12.4848","130","SE","","-46","-46","","-1","","","","F","September 26","god","Roman","","","Blake","","Pleiades","","","","5656","","Temple_of_Venus_Genetrix","Q2459870","","","","","","419125SVeG"
"1000124","Temple of Venus Obsequens","Venus","temple","Circus Maximus","Rome","Rome","423025","IT","","","","","-295","-290","-290","","-3","","","","F","August 19","god","Roman"
"1000125","Temple of Venus Victrix","Venus","temple","Campus Martius","Rome","Rome","423025","IT","41.895335","12.473014","90","E","","-55","-55","","-1","","","","F","","god","Roman","","yes","Stamper","senate","Pleiades; coords modified"
"1000126","Temple of the Divine Vespasian and the Divine Titus","Vespasian, Titus","temple","Forum","Rome","Rome","423025","IT","41.892876","12.484081","119","SE","","","","","","","","","M","","emperor","Roman","","","","","Pleiades","15042","","","5643","","","Q731284"
"1000127","Temple of Vesta","Vesta","temple","Forum","Rome","Rome","423025","IT","41.891792","12.486141","35","NE","","-575","-575","","-6","","","","F","","god","Roman","","","Stamper","","Pleiades","15010","","","8407","","Temple_of_Vesta","","","","","","","419125SVes"
"1000128","Temple of Vesta","Vesta","temple","","Tivoli","Tibur","423081","IT","41.9667","12.8009","190","S","","early 1st c. BCE","-99","-75","-1","","","","F","","god","Roman","","","","","Pleiades","4381","","","11457","","Temple_of_Vesta,_Tivoli","Q1219688"
"1000129","Temple of Vica Pota","Vica Pota","temple","Velian Hill","Rome","Rome","423025","IT","","","","","","-292-219","-292","-219","-3","","","","F","January 9","god","Roman"
"1000130","Temple of Victory","Victoria","temple","Palatine Hill","Rome","Rome","423025","IT","41.889418","12.48521","219","SW","-305","-294","-294","","-3","","","","F","August 1","concept","Roman","","","Stamper","","Pleiades","","","","","","Temple_of_Victory","Q1517031","","","","","","419125SViT"
"1000131","Temple of Volcanus","Volcanus","temple","Campus Martius","Rome","Rome","423025","IT","","","","","","-292-219","-292","-219","-3","","","","M","August 23","god","Roman"
"1000132","Temple of Vortumnus","Vortumnus","temple","Aventine Hill","Rome","Rome","423025","IT","","","","","-264","-264-219","-264","-219","-3","","","","M","August 13","god","Roman"
"1000133","Temple of Moneta","Moneta","temple","","Monte Cavo","Alban Mount","422826","IT","","","","","","-168","-168","","-2","","","","F","June 1","god","Roman"
"1000134","Temple of Janus Quadrifons","Janus","temple","Forum Transitorium","Rome","Rome","423025","IT","","","","","","81-96","81","","1","","","","M","","god","Roman"
"1000135","Temple of Veiovis","Veiovis","temple","Tiber Island","Rome","Rome","423025","IT","","","","","","","","","","","","","M","","god","Roman"
"1000136","Temple of Aesculapius","Aesculapius","temple","Esquiline","Rome","Rome","423025","IT","","","","","","","","","","","","","M","","hero","Roman","","no"
"1000137","Capitolium","Jupiter, Juno, Minerva","temple","","Ansedonia","Cosa","413107","IT","42.410911","11.286364","68","E","","","","","","","","","M/F","","god","Roman","","yes"
"1000138","Capitolium","Jupiter, Juno, Minerva","temple","","Cuma","Cumae","432808","IT","40.848488","14.057007","105","E","","26","","","","","","","M/F","","god","Roman","","yes","","","","14783"
"1000139","Capitolium","Jupiter, Juno, Minerva","temple","","Verona","Verona","383816","IT","45.443872","10.996195","144","SE","","","","","","","","","M/F","","god","Roman"
"1000140","Capitolium","Jupiter, Juno, Minerva","temple","","Sopron","Scarbantia","197501","HU","47.68489","16.58305","208","SW","","","","","","","","","M/F","","god","Roman"
"1000141","Capitolium","Jupiter, Juno, Minerva","temple","","Istanbul","Constantinople","520998","TR","41.013342","28.956067","","","","330","330","","","","","","M/F","","god","Roman","","no"
"1000142","Temple of Augustus","Augustus, Rome","temple","","Pula","Pola","197448","HR","44.870213","13.841842","156","SE","","","-2","14","1","","","","M/F","","emperor, city","Roman","","yes","","","","","391553443","","","","Temple_of_Augustus,_Pula","Q770030"
"1000143","Temple of Augustus","","temple","","Barcelona","Colonia Barcino","246343","ES","41.383351","2.177103","314","NW","","1st c. BCE","","","-1","","","","M","","emperor","Roman","","yes","","","","","592223249","","","","Temple_of_Augustus,_Barcelona","Q3819019"
"1000144","Temple of Augustus","Augustus","temple","","Pozzuoli","Puteoli","432815","IT","40.821276","14.120447","178","S","","","","","1","","","","M","","emperor","Roman","","yes","","","","","390040629"
"1000145","Capitolium","Jupiter, Juno, Minerva","temple","","Dahmani","Althiburos","324664","TN","35.873886","8.785101","43","NE","","","","","","","","","M/F","","god","Roman","","yes"
"1000146","Unknown","","temple","","Dahmani","Althiburos","324664","TN","35.874468","8.785616","224","SW","","","","","","","","","","","","Roman","","yes"
"1000147","Temple of Minerva","Minerva","temple","","Tebessa","Theveste","324831","DZ","35.404638","8.122492","121","SE","","","","","","","","","F","","god","Roman","","yes"
"1000148","Temple A","Apollo, Artemis, Aphrodite","temple","","GoncalÄ±","Laodicea on the Lycus","638955","TR","37.836269","29.109676","27","NE","","2nd c. CE","","","2","","","","M/F","","god","Roman","","yes","","","","18182"
"1000149","Temple of Trajan","Trajan","temple","","Bergama","Pergamum","550812","TR","39.132812","27.183256","201","S","","2nd c. CE","","","2","","","","M","","emperor","Roman","","yes"
"1000150","Temple of Dionysus","Dionysus","temple","","Bergama","Pergamum","550812","TR","39.132283","27.182573","166","S","","early 3rd c. CE","","","3","","","","M","","god","Roman","","yes"
"1000151","Temple of Consus","Consus","temple","Aventine","Rome","Rome","423025","IT","","","","","-272","-272","-272","-218","-3","","","","M","December 12","god","Roman","","no","Ziolkowski"
"1000152","Temple of Hercules","Hercules","temple","ad portam collinam","Rome","Rome","423025","IT","","","","","","","","-211","","","","","M","","hero","Roman","","no","Ziolkowski"
"1000153","Temple of Honos","Honor","temple","extra portam collinam","Rome","Rome","423025","IT","41.906487","12.498676","","","","-292-219","-292","-219","-3","","","","M","","concept","Roman","","no","Ziolkowski"
"1000154","Temple of Honos","Honor","temple","ad Portam Capenam","Rome","Rome","423025","IT","","","","","-233","-232-209","-232","-209","-3","-205","1000038","","F","July 17","concept","Roman","","no","Ziolkowski"
"1000155","Portonaccio Temple","Apollo","temple","","Veio","Veii","423116","IT","42.021223","12.390661","97","E","","-510","","","-6","","","","M","","god","Etruscan","","yes","","","","23458","","","","","","","","","","","","420124SPoA"
"1000156","Temple","","temple","","Great Chesterford","","79488","UK","52.07048","0.208052084","","","","","1","","1","350","","","","","","Romano-Celtic","","","The Rural Settlement of Roman Britain","","","","","","","","","","","","","1002"
"1000157","Temple","","temple","","Harlow","","","UK","51.790161","0.127094","115","SE","","last quarter 1st c. CE","76","100","1","late 4th c. CE","","","","","","Romano-Celtic","","","The Rural Settlement of Roman Britain","","","","79502","","","","","","","","","1045","","","https://www.pastscape.org.uk/hob.aspx?hob_id=370088","yes"
"1000158","Temple","","temple","","Gosbecks","","79486","UK","51.86582","0.856901856","","","","","","","","","","","","","","Romano-Celtic","","","The Rural Settlement of Roman Britain","","","","","","","","","","","","","1106","","","http://www.pastscape.org.uk/hob.aspx?hob_id=384017","yes"
"1000159","Temple","","temple","","Stonea Grange","","79696","UK","52.52174","0.134535711","","","","","","","","","","","","","","Romano-Celtic","","","The Rural Settlement of Roman Britain","","","","","","","","","","","","","2042"
"1000160","Temple","","temple","","Waste Management Park, Waterbeach, Cambridge","","","UK","52.2972","0.1791583","","","","","","","","","","","","","","Romano-Celtic","","","The Rural Settlement of Roman Britain","","","","","","","","","","","","","2068"
"1000161","Temple","","temple","","Baldock","","79311","UK","51.99054","-0.184278987","","","","","","","","","","","","","","Romano-Celtic","","","The Rural Settlement of Roman Britain","","","","","","","","","","","","","3012"
"1000162","Temple","","temple","","Wood End Lane/Buncefield Lane","","","UK","51.7593","-0.433190999","","","","","","","","","","","","","","Romano-Celtic","","","The Rural Settlement of Roman Britain","","","","","","","","","","","","","3031"
"1000163","Temple","","temple","","Friars Wash, Redbourn","","","UK","51.81901","-0.404061466","","","","","","","","","","","","","","Romano-Celtic","","","The Rural Settlement of Roman Britain","","","","","","","","","","","","","3073"
"1000164","Temple","","temple","","Caistor St. Edmund","Venta","79735","UK","52.58692","1.304821414","","","","","","","","","","","","","","Romano-Celtic","","","The Rural Settlement of Roman Britain","","","","","","","","","","","","","4023"
"1000165","Temple","","temple","A143 Scole-Stuston Bypass","Scole","Villa Faustini","79675","UK","52.36266","1.159824025","","","","","","","","","","","","","","Romano-Celtic","","","The Rural Settlement of Roman Britain","","","","","","","","","","","","","4031","","","https://www.pastscape.org.uk/hob.aspx?hob_id=389015","yes"
"1000166","Temple","","temple","","Crownthorpe, Wicklewood","","","UK","52.58352","1.080879369","","","","","","","","","","","","","","Romano-Celtic","","","The Rural Settlement of Roman Britain","","","","","","","","","","","","","4083"
"1000167","Temple","","temple","","Lancing Down","","","UK","50.84807","-0.328010681","","","","","","","","","","","","","","Romano-Celtic","","","The Rural Settlement of Roman Britain","","","","","","","","","","","","","7006"
"1000168","Temple","","temple","","Greenwich Park","","","UK","51.48127","0.001558654","","","","","","","","","","","","","","Romano-Celtic","","","The Rural Settlement of Roman Britain","","","","","","","","","","","","","8036"
"1000169","Temple-Mausoleum","","temple","","Lullingstone","","79582","UK","51.36418","0.196533335","","","","","","","","","","","","","","Romano-Celtic","","","The Rural Settlement of Roman Britain","","","","","","","","","","","","","9013"
"1000170","Temple","","temple","","Castle Field, Worth","","","UK","51.25017","1.3458945","","","","","","","","","","","","","","Romano-Celtic","","","The Rural Settlement of Roman Britain","","","","","","","","","","","","","9015"
"1000171","Temple-Mausoleum","","temple","","Keston","","79544","UK","51.3505","0.028999999","","","","","","","","","","","","","","Romano-Celtic","","","The Rural Settlement of Roman Britain","","","","","","","","","","","","","9016"
"1000172","Sanctuary complex","","temple","","Springhead","Vagniacis","79729","UK","51.43066","0.32613761","","","","","","","","","","","","","","Romano-Celtic","","","The Rural Settlement of Roman Britain","","","","","","","","","","","","","9020"
"1000173","Roadside settlement","","temple","","Springhead","","","UK","51.4307","0.323981736","","","","","","","","","","","","","","Romano-Celtic","","","The Rural Settlement of Roman Britain","","","","","","","","","","","","","9021"
"1000174","Temple","","temple","","Thurnham","","","UK","51.2847","0.579052952","","","","","","","","","","","","","","Romano-Celtic","","","The Rural Settlement of Roman Britain","","","","","","","","","","","","","9069"
"1000175","Temples","","temple","","Richborough","Rutupiae","79664","UK","51.28995","1.329420998","","","","","","","","","","","","","","Romano-Celtic","","","The Rural Settlement of Roman Britain","","","","","","","","","","","","","9106"
"1000176","Temple","","temple","","Boxted, Upchurch","","","UK","51.36451","0.658099701","","","","","","","","","","","","","","Romano-Celtic","","","The Rural Settlement of Roman Britain","","","","","","","","","","","","","9126"
"1000177","Temple and temenos","","temple","","Farley Heath","","","UK","51.193714","-0.496281","13","N","","","","","","","","","","","","Romano-Celtic","","","The Rural Settlement of Roman Britain","","","","79459","","","","","","","","","10005"
"1000178","Roman Temple","","temple","","Wanborough","","","UK","51.23794","-0.683091189","","","","","","","","","","","","","","Romano-Celtic","","","The Rural Settlement of Roman Britain","","","","79746","","","","","","","","","10027","","","https://www.pastscape.org.uk/hob.aspx?hob_id=250569","yes"
"1000179","Temple","","temple","","Church Field, Titsey","","","UK","51.27624","0.035920719","","","","","","","","","","","","","","Romano-Celtic","","","The Rural Settlement of Roman Britain","","","","","","","","","","","","","10035"
"1000180","Temple","","temple","","Chanctonbury Ring","","","UK","50.89682","-0.381227592","","","","","","","","","","","","","","Romano-Celtic","","","The Rural Settlement of Roman Britain","","","","","","","","","","","","","11012"
"1000181","Temple","","temple","Broadbridge","Bosham","","110448342","UK","50.83983","-0.852303555","","","","","","","","","","","","","","Romano-Celtic","","","The Rural Settlement of Roman Britain","","","","","","","","","","","","","11023"
"1000182","Temple","","temple","","Ratham Mill, Funtington","","","UK","50.85183","-0.852122691","","","","","","","","","","","","","","Romano-Celtic","","","The Rural Settlement of Roman Britain","","","","","","","","","","","","","11062"
"1000183","Octagonal Temple","","temple","","Weycock Hill","","","UK","51.49287","-0.817942","","","","","","","","","","","","","","Romano-Celtic","","","The Rural Settlement of Roman Britain","","","","79755","","","","","","","","","12055","","","https://www.pastscape.org.uk/hob.aspx?hob_id=248004","yes"
"1000184","Temple-Mausoleum","","temple","Roman villa","Bancroft","","79312","UK","52.05657","-0.797733369","","","","","","","","","","","","","","Romano-Celtic","","","The Rural Settlement of Roman Britain","","","","","","","","","","","","","13002","","","","yes"
"1000185","Temple","","temple","","Bourton Grounds","","","UK","51.99158","-0.939216473","","","","","","","","","","","","","","Romano-Celtic","","","The Rural Settlement of Roman Britain","","","","","","","","","","","","","13039"
"1000186","Temple","","temple","","Chedworth","","79383","UK","51.81811","-1.91261855","","","","","","","","","","","","","","Romano-Celtic","","","The Rural Settlement of Roman Britain","","","","","","","","","","","","","14072","","","https://www.pastscape.org.uk/hob.aspx?hob_id=327595","yes"
"1000187","Temple","","temple","","Lydney Park","","79583","UK","51.720922","-2.558005","138","SE","","","","","","","","","","","","Romano-Celtic","","","The Rural Settlement of Roman Britain","","","","","","","","","","","","","14074","","","","yes"
"1000188","Temple","","temple","","Uley","","","UK","51.69565","-2.306678281","","","","","","","","","","","","","","Romano-Celtic","","","The Rural Settlement of Roman Britain","","","","79726","","","","","","","","","14103","","","https://www.pastscape.org.uk/hob.aspx?hob_id=205240","yes"
"1000189","Temple","","temple","","Hayling Island","","79504","UK","50.82193","-0.972536725","","","","","","","","","","","","","","Romano-Celtic","","","The Rural Settlement of Roman Britain","","","","79504","","","","","","","","","15044","","","https://www.pastscape.org.uk/hob.aspx?hob_id=242295","yes"
"1000190","Temple","","temple","","Sansom's Platt","","","UK","51.86778","-1.343901034","","","","","","","","","","","","","","Romano-Celtic","","","The Rural Settlement of Roman Britain","","","","","","","","","","","","","16063"
"1000191","Temple","","temple","","Woodeaton","","","UK","51.80893","-1.223670327","","","","","","","","","","","","","","Romano-Celtic","","","The Rural Settlement of Roman Britain","","","","79769","","","","","","","","","16093","","","","yes"
"1000192","Temple","","temple","","Marcham/Frilford","","79470","UK","51.6633","-1.366780827","","","","later 1st c. CE","51","100","1","early 5th c. CE","","","","","","Romano-Celtic","","","The Rural Settlement of Roman Britain","","","","","","","","","","","","","16099","","","https://www.pastscape.org.uk/hob.aspx?hob_id=234025","yes"
"1000193","Temple of Apollo Cunomaglos","Apollo Cunomaglos","temple","","Nettleton","","","UK","51.49076","-2.257769643","","","","mid/late 2nd c CE","151","400","2","late 4th c. CE","","","M","","","Romano-Celtic","","","The Rural Settlement of Roman Britain","","","","79609","","","","","","","","","17001","","","http://www.pastscape.org.uk/hob.aspx?hob_id=208294","yes"
"1000194","Temple","","temple","","Badbury","Vindocladia","79740","UK","50.82652","-2.057591749","","","","","","","","","","","","","","Romano-Celtic","","","The Rural Settlement of Roman Britain","","","","","","","","","","","","","20014","","","http://www.pastscape.org.uk/hob.aspx?hob_id=209560","yes"
"1000195","Temple","","temple","","Maiden Castle","","82240559","UK","50.69488","-2.46999813","","","","4th c. CE","301","400","4","","","","","","","Romano-Celtic","","","The Rural Settlement of Roman Britain","","","","","","","","","","","","","20035"
"1000196","Temple","","temple","","Poundbury","","","UK","50.71896","-2.451285648","","","","","","","","","","","","","","Romano-Celtic","","","The Rural Settlement of Roman Britain","","","","","","","","","","","","","20060"
"1000197","Temple","","temple","","Jordan Hill","","","UK","50.63755","-2.427115997","179","S","","","69","79","1","4th c. CE","","","","","","Romano-Celtic","","","The Rural Settlement of Roman Britain","","","","79540","","","","Jordan_Hill_Roman_Temple","Q6276614","","","","20079","","","","yes"
"1000198","Temple","","temple","","Brean Down","","","UK","51.32421","-3.015511638","","","","4th c. CE","340","","4","late 4th c. CE","","","","","","Romano-Celtic","","","The Rural Settlement of Roman Britain","","","","79351","","","","","","","","","21004","","","http://www.pastscape.org.uk/hob.aspx?hob_id=191317","yes"
"1000199","Temple","","temple","","Henley Wood","","","UK","51.3831","-2.801914168","","","","4th c. CE","301","400","4","late 4th c. CE","","","","","","Romano-Celtic","","","The Rural Settlement of Roman Britain","","","","79507","","","","","","","","","21047","","","","yes"
"1000200","Temple","","temple","Pagans Hill","Chew Stoke","","","UK","51.36073","-2.637358019","","","","","","","","","","","","","","Romano-Celtic","","","The Rural Settlement of Roman Britain","","","","","","","","Pagans_Hill_Roman_temple","","","","","21106"
"1000201","Temple","","temple","","Lamyatt Beacon","","79554","UK","51.12394","-2.473626892","","","","","","","","","","","","","","Romano-Celtic","","","The Rural Settlement of Roman Britain","","","","","","","","","","","","","21127","","","https://www.pastscape.org.uk/hob.aspx?hob_id=199898","yes"
"1000202","Temple","","temple","","Redhill, Ratcliffe on Soar","","","UK","52.86942","-1.269562233","","","","","","","","","","","","","","Romano-Celtic","","","The Rural Settlement of Roman Britain","","","","","","","","","","","","","25035"
"1000203","Villa temple","","temple","","Cosgrove","","79404","UK","52.07176","-0.841971487","","","","late 2nd c.","167","","2","5th c. CE","","","","","","Romano-Celtic","","","The Rural Settlement of Roman Britain","","","","","","","","","","","","","26043"
"1000204","Religious complex/town","","temple","","Thistleton","","79712","UK","52.74453","-0.65474716","","","","","","","","","","","","","","Romano-Celtic","","","The Rural Settlement of Roman Britain","","","","","","","","","","","","","27005"
"1000205","Temple","","temple","Grimstock Hill","Coleshill","","","UK","52.51183","-1.714308514","","","","","120","","2","4th c. CE","","","","","","Romano-Celtic","","","The Rural Settlement of Roman Britain","","","","79397","","","","","","","","","32006"
"1000206","Temples","","temple","","Maryport","Alauna","89097","UK","54.72287","-3.489841344","","","","","","","","","","","","","","Romano-Celtic","","","The Rural Settlement of Roman Britain","","","","","","","","","","","","","41043"
"1000207","Temple","","temple","","Great Bulmore","","972561590","UK","51.61875","-2.927248119","","","","","","","","","","","","","","Romano-Celtic","","","The Rural Settlement of Roman Britain","","","","","","","","","","","","","43021"
"1000208","Temple","","temple","","Caersws","","79363","UK","52.5169","-3.428691514","","","","","","","","","","","","","","Romano-Celtic","","","The Rural Settlement of Roman Britain","","","","","","","","","","","","","45019","","","","yes"
"1000209","Temple of Saturn","Saturn","temple","","Dougga","Thugga","315223","TN","36.42555","9.22063","109","E","","","","","","","","","M","","god","Roman","","","","","","11588"
"1000210","Temple of Saturn","Saturn","temple","","El Fahs","Thuburbo Majus","315220","TN","36.400753","9.907412","132","SE","","","","","","","","","M","","god","Roman","","","","","","31251"
"1000211","Temple of Saturn","Saturn","temple","","Tiddis","Tiddis","305167","DZ","36.463333","6.483889","75","E","","","","","","","","","M","","god","Roman"
"1000212","Temple of Hercules","Hercules","temple","","Amman","Philadelphia","697728","JO","31.9538","35.9349","76","E","","","162","","2","166","","","M","","hero","Roman","","","Wikipedia","","","","","","","","Temple_of_Hercules_(Amman)"
"1000213","Temple of Herakles","Hercules","temple","","Agrigento","Akragas","462086","IT","37.290252","13.586221","89","E","","","","","-6","","","","M","","hero","Greek","","Yes","Wikipedia","","","","","","","","Temple_of_Heracles,_Agrigento"
"1000214","Temple of Hera Lakinia","Juno","temple","","Agrigento","Akragas","462086","IT","37.288662","13.600197","82","E","","ca. 450 BCE","","","-5","","","","F","","god","Greek","","Yes","Wikipedia","","","","","","","","Temple_of_Juno,_Agrigento"
"1000215","Temple of Concord","","temple","","Agrigento","Akragas","462086","IT","37.289747","13.592005","89","E","","ca. 440-430 BCE","","","-5","","","","","","concept","Greek","","Yes","Wikipedia","","","","","","","","Temple_of_Concordia,_Agrigento"
"1000216","Temple of Asclepius","","temple","","Agrigento","Akragas","462086","IT","37.282531","13.589582","89","E","","late 5th c. BCE","","","-5","","","","","","hero","Greek","","Yes","Wikipedia","","","","","","","","Valle_dei_Templi"
"1000217","Temple of Olympian Zeus","Jupiter","temple","","Agrigento","Akragas","462086","IT","37.290982","13.584423","77","E","","5th c. BCE","","","-5","","","","M","","god","Greek","","Yes","Wikipedia","","","","","","","","Temple_of_Olympian_Zeus,_Agrigento"
"1000218","Temple of Hephaistos","Vulcan","temple","","Agrigento","Akragas","462086","IT","37.292956","13.578769","86","E","","ca. 430 BCE","","","-6","","","","M","","god","Greek","","Yes","Wikipedia","","","","","","","","Valle_dei_Templi"
"1000219","Sacellum","","temple","","Agrigento","Akragas","462086","IT","37.292956","13.578769","82","E","","ca. 530-520 BCE","","","-7","","","","","","","Greek","","Yes","Wikipedia","","","","","","","","Valle_dei_Templi"
"1000220","Temple of the Dioscuri","","temple","","Agrigento","Akragas","462086","IT","37.291344","13.581507","83","E","","mid-5th c. BCE","","","-5","","","","","","hero","Greek","","Yes","Wikipedia","","","","","","","","Valle_dei_Templi"
"1000221","Temple L","","temple","","Agrigento","Akragas","462086","IT","37.291043","13.581401","77","E","","late 5th c. BCE","","","-5","","","","","","","Greek","","Yes"
"1000222","Temple of Demeter","","temple","","Agrigento","Akragas","462086","IT","37.299241","13.603379","123","SE","","ca. 480-470 BCE","","","-5","","","","","","god","Greek","","Yes"
"1000223","Temple of Isis","","temple","","Agrigento","Akragas","462086","IT","37.298272","13.589222","167","S","","late 1st c. BCE","","","-1","","","","","","god","Roman","","Yes"
"1000224","Temple of Poseidon","Neptune","temple","","Sounio","Sounion","580107","GR","37.650153","24.024573","103","E","","444-440 BCE","","","-5","","","","M","","god","Greek","","Yes","Wikipedia","","","","","","","","Temple_of_Poseidon_at_Sounion","Q49819204","","","","","","377240SSou"
"1000225","Temple of Athena","Minerva","temple","","Sounio","Sounion","580107","GR","37.652933","24.027015","98","E","","470 BCE","","","-5","1st c. CE","","","F","","god","Greek","","Yes","","","","","","","","","","Q24204542","","","","","","377240SAth"
"1000226","Heroon of Phrontis","Phrontis","temple","","Sounio","Sounion","580107","GR","37.653068","24.02716","102","E","","5th c. BCE","","","-5","","","","M","","hero","Greek","","Yes"
"1000227","Capitolium","Jupiter, Juno, Minerva","temple","","Terracina","Tarracina","433143","IT","41.29215","13.248628","224","SW","","","","","","","","","M/F","","god","Roman","","Yes","Wikipedia","","","19795","","","","","","Q30524229"
"1000228","Church of San Cesareo","","temple","","Terracina","Tarracina","433143","IT","41.291923","13.248411","132","SE","","","","","","","","","","","","Roman","","Yes","PECS","","","19797"
"1000229","Temple of Apollo","Apollo","temple","","Pompei","Pompeii","433032","IT","40.749257","14.484377","155","SE","","","","","","","","","M","","god","","","yes","Vici.org","","","4349","780913480","","","","Temple_of_Apollo_(Pompeii)","Q2699249"
"1000230","Temple of Bellona","Bellona","temple","","Ostia Antica","Ostia","422995","IT","41.752632","12.291518","292","W","","117-138","117","138","2","","","","F","","god","Roman","","","Vici.org","","","4380","","","","","Temple_of_Bellona,_Ostia","Q3983235","","","","","","","https://www.ostia-antica.org/regio4/1/1-4.htm","yes"
"1000231","Tharros","","temple","","San Giovanni di Sinis","","472032","IT","39.873825","8.440263","","","","","","","","","","","","","","","","","Vici.org","","","7846","","","","","","","","","","","","","","no"
"1000232","Temple of Juno","Juno","temple","","","Gabii","422932","IT","41.887016","12.71593","154","SE","","","","","","","","","F","","god","Roman","","yes","Vici.org","","","7912","377820068","","","","","","","","","","","","","no"
"1000233","Temple of Antas (Punic)","Sid Addir","temple","","Fluminimaggiore","Metalla","471971","IT","39.393952","8.500437","113","SE","","Late 5th c. BCE","-450","-401","-5","","1000781","","M","","god","Punic","","yes","Vici.org","","","8129","","","","","Tempio_di_Antas","Q689104","","","","","","394085SAdd","","yes"
"1000234","Punico-Roman Temple","","temple","","Cagliari","Caralis","471899","IT","39.222012","9.106047","","","","","","","","","","","","","","","","","Vici.org","","","8476","","","","","","","","","","","","","","no"
"1000235","Capitolium","Jupiter, Juno, Minerva","temple","","Brescia","Brixia","383603","IT","45.539905","10.225802","187","S","","","","","","","","","","","god","","","","Vici.org","","Built by Vespasian in AD 73","8480","444468888","","","","Capitolium_of_Brixia","Q3657072","","","","","","","","no"
"1000236","Temple of Jupiter","Jupiter","temple","","Bidoni","","","IT","40.121441","8.94209","","","","","","","","","","","","","god","","","","Vici.org","","","8492","","","","","","","","","","","","","","no"
"1000237","Temple B","","temple","","Pietrabbondante","","433025","IT","41.73999","14.386793","118","SE","","2nd half 2nd c. BCE","-149","-100","-2","1st. c. CE","","","","","","Samnite","","yes","Vici.org","","","10919","","","","","","","","","","","","","","yes"
"1000238","Temple of Hera Lacinia","Hera","temple","","Capo Colonna","","452356","IT","39.02651","17.204949","","","","","","","","","","","","","god","","","","Vici.org","","","10966","452332","","","","","","","","","","","","","no"
"1000239","Temple Complex","","temple","","Pantanello","Metapontum","442658","IT","40.383694","16.823549","","","","","","","","","","","","","","","","","Vici.org","","","11201","","","","","","","","","","","","","","no"
"1000240","Temple of Venus Erycina","Venus","temple","","","Segesta","462487","IT","37.941475","12.832296","84","E","","","","","","","","","F","","god","","","","Vici.org","","","11596","963441586","","","place/segesta/segesta-temple","it=Tempio_di_Segesta","","","","","","","","","no"
"1000241","Temple of Diana","","temple","","Ariccia","Aricia","422844","IT","41.723934","12.710217","","","","","","","","","","","","","god","","","","Vici.org","","","11609","","","","place/aricia","","","","","","","","417127SDiN","","no"
"1000242","Western forum temple","","temple","","","Carsulae","413065","IT","42.639541","12.557359","5","N","","","","","","","","","","","","Roman","","Yes","","","","11625","721328707","","","","","","","","","","","","","yes"
"1000243","Acropolis","","temple","","Populonia","Populonium","403212","IT","42.988754","10.5092","","","","","","","","","","","","","","","","","Vici.org","","","11649","","","","","","","","","","","","","","no"
"1000244","Temple of Fortuna","Fortuna","temple","","Palestrina","Praeneste","423013","IT","41.840709","12.892591","195","S","","","","","","","","","","","concept","Italic","","Yes","Vici.org","","","11650","7963799","","","","Palestrina#Sanctuary_of_Fortuna_Primigenia","Q3949669","","","","","","","","yes"
"1000245","Temple of Minerva","Dioscuroi","temple","","Assisi","Assisium","413037","IT","43.071224","12.614974","211","SW","","","","","","","","","M","","hero","Roman","","Yes","Vici.org","","","11658","","","","","Temple_of_Minerva,_Assisi","Q11836","","","","","","","","yes"
"1000246","Temple of Athena","Athena","temple","","Siracusa","Syracuse","462503","IT","37.05965","15.29354","","","","","","","","","","","","","god","Greek","","","Vici.org","","Part of the structure is incorporated in Siracusa Cathedral","11869","","","","","","","","","","","","","","no"
"1000247","Temple of Apollo","Apollo","temple","","Siracusa","Syracuse","462503","IT","37.063938","15.29297","","","","","","","","","","","M","","god","Greek","","","Vici.org","","","11870","","","","","","","","","","","","","","no"
"1000248","Temple of Diana Nemorensis","Diana","temple","","Alberese","","422917","IT","42.672871","11.05109","","","","","","","","","","","F","","god","Roman","","","Vici.org","","","11973","422917","22227","","","Temple_of_Diana_(Nemi)","Q18590113","","","","","","417127SDiN","","no"
"1000249","Temple of Venus, Baiae","Venus","temple","","Bacoli","Baiae","432716","IT","40.816093","14.071485","","","","","","","","","","","F","","god","","","","Vici.org","","","13916","","","","","","","","","","","","","","no"
"1000250","Temple of Diana, Baiae","Diana","temple","","Bacoli","Baiae","432716","IT","40.819092","14.070563","","","","","","","","","","","","","god","","","","Vici.org","","","13917","","","","","","","","","","","","","","no"
"1000251","Temple of Jupiter","Jupiter","temple","Acropolis","Cuma","Cumae","432808","IT","40.849385","14.051347","91","E","","","","","","","","","","","god","","","","Vici.org","","","14781","","42938","","","","Q2185877"
"1000252","Temple of Apollo","Apollo","temple","Acropolis","Cuma","Cumae","432808","IT","40.848538","14.053502","42","NE","","","","","","","","","M","","god","","","","Vici.org","","","14782"
"1000253","Temple of Apollo","Apollo","temple","","Lago d'Averno","Lake Avernus","432712","IT","40.839336","14.082209","","","","","","","","","","","M","","god","","","","Vici.org","","Lake Avernus was seen as an entrance to Hades","16310","","","","","","","","","","","","","","no"
"1000254","Temple of Hera","Hera","temple","","Paestum","Poseidonia","442733","IT","40.419327","15.005457","","","","","","","","","","","F","","god","","","","Vici.org","","","16774","","","","","","","","","","","","","","yes"
"1000255","Temple of Hera","Hera","temple","","Paestum","Poseidonia","442733","IT","40.419971","15.005339","","","","","","","","","","","F","","god","","","","Vici.org","","","16775","","","","","","","","","","","","","","yes"
"1000256","Sanctuary of Minerva","Minerva","temple","","Breno","Civitas Cammunorum","383617","IT","45.954277","10.284884","","","","","","","","","","","F","","god","Roman","","yes","Vici.org","","","17499","","","","","Sanctuary_of_Minerva","Q3949899","","","","","","","","yes"
"1000257","Temple A","","temple","","Grumento Nova","Grumentum","442603","IT","40.283588","15.905447","311","NW","","","","","","","","","","","","","","","Vici.org","","","17600","","","","","","","","","","","","","","no"
"1000258","Temple B","","temple","","Grumento Nova","Grumentum","442603","IT","40.283955","15.906185","","","","","","","","","","","","","","","","","Vici.org","","","17601","","","","","","","","","","","","","","no"
"1000259","Temple C","","temple","","Grumento Nova","Grumentum","442603","IT","40.285208","15.906916","37","NE","","","","","","","","","","","","","","","Vici.org","","","17602","","","","","","","","","","","","","","no"
"1000260","Temple D","","temple","","Grumento Nova","Grumentum","442603","IT","40.285797","15.907416","218","SW","","","","","","","","","","","","","","","Vici.org","","","17603","","","","","","","","","","","","","","no"
"1000261","Oratorio di Falaride","","temple","","Agrigento","Akragas","462086","IT","37.296696","13.58861","","","","","","","","","","","","","","","","","Vici.org","","","17664","","","","","","","","","","","","","","no"
"1000262","Temple of Demeter","Demeter","temple","","Terraseo","","","IT","39.20137","8.635581","100","E","","","","","","","","","","","god","","","","Vici.org","","","17725","","","","","","","","","","","","392863STer","","no"
"1000263","Temple of Victory","Victory","temple","","Imera","Himera","462244","IT","37.973946","13.82408","","","","","","","","","","","","","concept","","","","Vici.org","","","17910","37484455","","","battle/himera-480-bce","Temple_of_Victory_%28Himera%29","","","","","","","","","no"
"1000264","Capitolium","Jupiter, Juno, Minerva","temple","","Ostia Antica","Ostia","422995","IT","41.754478","12.28806","150","SE","","","","","","","","","M/F","","god","Roman","","","Vici.org","","","17919","","","","","","","","","","","","","","no"
"1000265","Nymphaeum","Nymphs","temple","","Ostia Antica","Ostia","422995","IT","41.757095","12.295577","","","","","","","","","","","F","","god","Roman","","","Vici.org","","","17927","","","","","","","","","","","","","","no"
"1000266","Temple of Rome and Augustus","Rome, Augustus","temple","","Ostia Antica","Ostia","422995","IT","41.753574","12.288665","329","NW","","Tiberius","14","37","1","","","","M/F","","city,emperor","Roman","","yes","Vici.org","","","17928","","","","","","","","","","","","","https://www.ostia-antica.org/regio1/forum/temprom.htm","yes"
"1000267","Temple 'C'","","temple","","Selinunte","Selinus","462489","IT","37.583237","12.825288","","","","","","","","","","","","","","","","","Vici.org","","","17972","","","","","","","","","","","","","","no"
"1000268","Temple 'A'","","temple","","Selinunte","Selinus","462489","IT","37.582607","12.825358","","","","","","","","","","","","","","","","","Vici.org","","","17974","","","","","","","","","","","","","","no"
"1000269","Temple 'B'","","temple","","Selinunte","Selinus","462489","IT","37.58292","12.825808","","","","","","","","","","","","","","","","","Vici.org","","","17975","","","","","","","","","","","","","","no"
"1000270","Temple 'D'","","temple","","Selinunte","Selinus","462489","IT","37.583687","12.825046","","","","","","","","","","","","","","","","","Vici.org","","","17976","","","","","","","","","","","","","","no"
"1000271","Temple 'E'","","temple","","Selinunte","Selinus","462489","IT","37.586716","12.834885","","","","","","","","","","","","","","","","","Vici.org","","","17977","","","","","","","","","","","","","","no"
"1000272","Temple 'F'","","temple","","Selinunte","Selinus","462489","IT","37.587337","12.834879","","","","","","","","","","","","","","","","","Vici.org","","","17978","","","","","","","","","","","","","","no"
"1000273","Temple 'G'","","temple","","Selinunte","Selinus","462489","IT","37.588314","12.834987","","","","","","","","","","","","","","","","","Vici.org","","","17979","","","","","","","","","","","","","","no"
"1000274","Sanctuary of Demeter Malophorus","Demeter","temple","","Selinunte","Selinus","462489","IT","37.586945","12.817137","","","","","","","","","","","","","god","","","","Vici.org","","","17980","","","","","","","","","","","","","","no"
"1000275","Greek temple","","temple","","Taranto","Tarentum","442810","IT","40.473709","17.233036","","","","","","","","","","","","","","","","","Vici.org","","","17981","","","","","","","","","","","","","","no"
"1000276","Temple of Venus","Venus","temple","","Tivoli","Tibur","423081","IT","41.944672","12.774768","","","","","","","","","","","F","","god","","","","Vici.org","","","17984","","","","","","","","","","","","","","no"
"1000277","Temple of Demeter","Demeter","temple","","Palazzolo Acreide","Acrae","","IT","37.057495","14.89367","","","","","","","","","","","","","god","","","","Vici.org","","Temple of Demeter, Acrae","17988","","","","","","","","","","","","","","no"
"1000278","Sanctuary","Hera","temple","","Locri","Locri Epizephiri","452369","IT","38.211281","16.238371","","","","","","","","","","","","","","","","","Vici.org","","","17993","629225363","","","","","","","","","","","","","no"
"1000279","Tavole Palatine","Hera","temple","","Tavole Palatine","Metapontum","442658","IT","40.416199","16.816666","","","","","","","","","","","F","","god","Greek","","","Vici.org","","","17996","442611","21308","","","Tavole_Palatine","Q3981620","","","","","","404168SHer","","no"
"1000280","Temple A","","temple","","Santa Severa","Pyrgi","433061","IT","42.015227","11.963455","233","SW","","","","","","","","","","","","","","","Vici.org","","","17997","","","","","","","","","","","","","","no"
"1000281","Temple B","","temple","","Santa Severa","Pyrgi","433061","IT","42.015064","11.963823","233","SW","","","","","","","","","","","","","","","Vici.org","","","17998","","","","","","","","","","","","","","no"
"1000282","Sanctuary of Apollo","","temple","","Santa Severa","Pyrgi","433061","IT","42.014652","11.964618","","","","","","","","","","","M","","god","","","","Vici.org","","","17999","","","","","","","","","","","","","","no"
"1000283","Temple of Venus Erycina","","temple","","Erice","Eryx","462201","IT","38.036556","12.583742","","","","","","","","","","","F","","god","","","","Vici.org","","","18316","","","","place/eryx","","","","","","","","","","no"
"1000284","Talamonaccio","","temple","Poggio Talamonaccio","Telamone","Telamon","403280","IT","42.551804","11.169796","","","","","","","","","","","","","","","","","Vici.org","","Etruscan/Roman temple","18371","254082752","","","","","","","","","","","426112STal","","no"
"1000285","Cult Site","","temple","","Monte S. Martino","","","IT","45.917473","10.817933","","","","","","","","","","","","","","","","","Vici.org","","Luogo die culto preromano e romano","18758","383713","","","","","","","","","","","","","no"
"1000286","Temple of Clitumnus","","temple","","Pissignano","","","IT","42.842201","12.7569","","","","","","","","","","","","","","","","","Vici.org","","","19791","413140","","","","Temple_of_Clitumnus","Q3983167","","","","","","","","no"
"1000287","Temple of Flora","","temple","","Madonna della Libera","","","IT","41.305756","14.562722","","","","","","","","","","","F","","concept","","","","Vici.org","","","19792","","","","","it=Tempio_di_Flora_(Cerreto_Sannita)","Q3983249","","","","","","","","no"
"1000288","Temple of the Dioscuri","","temple","","Napoli","Neapolis","433014","IT","40.85144","14.25683","","","","","","","","","","","","","hero","","","","Vici.org","","","19793","","","","","","","","","","","","","","no"
"1000289","Temple of Diana Tifatina","Diana","temple","","Sant'Angelo In Formis","","","IT","41.118251","14.260432","256","W","","","-399","-300","-4","","","","F","","god","","","","Vici.org","","","19794","432813","22559","","","","","","","","","","","","yes"
"1000290","Temple","","temple","","Bevagna","Mevania","413200","IT","42.934608","12.609744","","","","","","","","","","","","","","","","","Vici.org","","","19799","","","","","","","","","","","","","","no"
"1000291","Temple","","temple","","","Peltuinum","413247","IT","42.28349","13.623889","19","N","","","","","","","","","","","","","","","Vici.org","","","20380","","","","","","","","","","","","","","no"
"1000292","Temple","","temple","Castel Focognano","Pieve a Socano","","413254","IT","43.652519","11.787855","","","","","","","","","","","","","","","","","Vici.org","","Etruscan sanctuary","20522","","","","","","","","","","","","","","no"
"1000293","Large Temple","","temple","","Luni","Luna","403235","IT","44.065837","10.017376","205","SW","","","","","","","","","","","","","","","Vici.org","","","22164"
"1000294","Sanctuary","","temple","Lake of the Idols","","","","IT","43.866669","11.683333","","","","","","","","","","","","","","Etruscan","","","Vici.org","","Lago degli Idoli","22684","","","","","","","","","","","","","","no"
"1000295","Temple","","temple","La Pieve-Molino","Montemignaio","","","IT","43.740524","11.621438","","","","","","","","","","","","","","","","","Vici.org","","Esp. beautifull are the capitals on the pillars, made by local and Lombard artrist - workers","22686","","","","","","","","","","","","","","no"
"1000296","Temple of Athena","Athena","temple","","Paestum","Poseidonia","442733","IT","40.42453","15.005402","","","","","","","","","","","F","","god","","","","Vici.org","","","23309","","","","","","","","","","","","","","yes"
"1000297","Temple of Diana","","temple","","CefalÃº","Cephaloedium","462154","IT","38.038563","14.02475","","","","","","","","","","","","","god","","","","Vici.org","","","23670","","","","","","","","","","","","","","no"
"1000298","Large Temple","","temple","","","Vulci","413393","IT","42.419648","11.628294","194","S","","","","","","","","","","","","Etruscan","","","Vici.org","","","23894","48210386","","","","","","","","","","","","","no"
"1000299","Temple of Hercules","","temple","","","Vulci","413393","IT","42.418175","11.631992","","","","","","","","","","","","","hero","Etruscan","","","Vici.org","","Small temple (sacellum) dedicated to Hercules","23895","","","","","","","","","","","","","","no"
"1000300","Etrusco-Roman temple complex","","temple","","Fiesole","Faesulae","413124","IT","43.808475","11.292941","","","","","","","","","","","","","","","","","Vici.org","","","24190","","","","","","","","","","","","","","no"
"1000301","Asclepieion","","temple","","","Heloros","462234","IT","36.841862","15.105948","","","","","","","","","","","M","","hero","","","","Vici.org","","","24464","","","","","","","","","","","","","","no"
"1000302","Temple of Jupiter","","temple","","Tuscolo","Tusculum","423108","IT","41.798317","12.704335","","","","","","","","","","","","","god","","","","Vici.org","","","24929","","","","","","","","","","","","","","no"
"1000303","Temple","","temple","","","Megara Hyblaea","462307","IT","37.204262","15.175998","","","","","","","","","","","","","","","","","Vici.org","","Extra mural temple","25276","","","","","","","","","","","","","","no"
"1000304","Temple","","temple","","Paestum","Paestum","442733","IT","40.423512","15.006211","","","","","","","","","","","","","","","","","Vici.org","","Roman Temple - santuario romano","25323","","","","","","","","","","","","","","no"
"1000305","Temple of Peace","","temple","","Paestum","Paestum","442733","IT","40.421938","15.005541","","","","","","","","","","","","","concept","","","","Vici.org","","","25325","","","","","","","","","","","","","","no"
"1000306","Agora sanctuary","","temple","","Serra Orlando","Morgantina","462372","IT","37.430794","14.479367","","","","","","","","","","","","","","","","","Vici.org","","","25516","","","","","","","","","","","","","","no"
"1000307","Temple of Demeter and Kore","","temple","","Serra Orlando","Morgantina","462372","IT","37.43034","14.479649","","","","","","","","","","","","","god","","","","Vici.org","","Morgantia, Murgantia and Morgantium - temple","25518","","","","","","","","","","","","","","no"
"1000308","Citadel","","temple","","Serra Orlando","Morgantina","462372","IT","37.437569","14.48876","","","","","","","","","","","","","","","","","Vici.org","","Ruins of a temple","25626","","","","","","","","","","","","","","no"
"1000309","Rock of Ceres","","temple","","Enna","Henna","462236","IT","37.569225","14.289181","","","","","","","","","","","","","","","","","Vici.org","","Rock shrine of Demeter - Ceres.Rocca di Cerere","25627","","","","","","","","","","","","","","no"
"1000310","Templi Ferali","","temple","","Palazzolo Acreide","Acrae","462068","IT","37.05713","14.895352","","","","","","","","","","","","","hero","","","","Vici.org","","Heroon. Temple dedicated to the cult of the dead heroes","25686","","","","","","","","","","","","","","no"
"1000311","Temple","","temple","","","Casmenae","462269","IT","37.076412","14.82563","","","","","","","","","","","","","","Greek","","","Vici.org","","Temple pre Kasmenai","25689","","","","","","","","","","","","371148SKas","","no"
"1000312","Temple","","temple","Monte Casale","","Casmenae","462269","IT","37.076519","14.826977","","","","","","","","","","","","","","","","","Vici.org","","Temple","25690","","","","","","","","","","","","","","no"
"1000313","Temple of Hercules","Hercules","temple","","Ostia Antica","Ostia","422995","IT","41.753782","12.286157","76","E","","4th qu. 2nd - 1st qu. 1st c. BCE","-124","-75","-2","","","","M","","hero","Roman","","yes","Vici.org","","","27354","","","","","","","","","","","","","http://www.ostia-antica.org/regio1/15/15-5.htm","yes"
"1000314","Serapeum","Serapis","temple","","Ostia Antica","Ostia","422995","IT","41.753315","12.283876","","","","","","","","","","","M","","hero","","","","Vici.org","","","27355","","","","","","","","","","","","","http://www.ostia-antica.org/regio3/17/17-4.htm","no"
"1000315","Temple of Ceres","Ceres","temple","","Ostia Antica","Ostia","422995","IT","41.756348","12.291035","150","SE","","","","","","","","","F","","god","","","","Vici.org","","","27359","","","","","","","","","","","","","http://www.ostia-antica.org/regio2/7/7-5.htm","no"
"1000316","Temple I of Four Small Temples","Venus","temple","","Ostia Antica","Ostia","422995","IT","41.755735","12.290713","149","SE","","early 2nd c. BCE","-199","-150","-2","","","","F","","god","Roman","","yes","Vici.org","","Quatro Tempietti","27361","","","","","","","","","","","","","http://www.ostia-antica.org/regio2/8/8-2.htm","yes"
"1000317","Shrine of the Altar of the Twins","Romulus and Remus","temple","","Ostia Antica","Ostia","422995","IT","41.756107","12.29099","","","","","","","","","","","","","","","","","Vici.org","","Regio II - Insula VII - Sacello dell'Ara dei Gemelli (II,VII,3)","27363","","","","","","","","","","","","","http://www.ostia-antica.org/regio2/7/7-3.htm","no"
"1000318","Shrine to Jupiter","Jupiter","temple","","Ostia Antica","Ostia","422995","IT","41.755539","12.290882","240","SW","","late 1st c. BCE","-50","-1","-1","","","","M","","god","","","","Vici.org","","","27364","","","","","","","","","","","","","http://www.ostia-antica.org/regio2/8/8-4.htm","yes"
"1000319","Temple of the Mensores","","temple","","Ostia Antica","Ostia","422995","IT","41.75373","12.285083","170","S","","","","","","","","","","","","Roman","","yes","Vici.org","","Probably temple was dedicated to Ceres","27380","","","","","","","","","","","","","http://www.ostia-antica.org/regio1/19/19-2.htm","yes"
"1000320","Temple of Bona Dea","Bona Dea","temple","","Ostia Antica","Ostia","422995","IT","41.750622","12.285329","99","E","","1st half 1st c. CE","1","50","1","","","","F","","god","Roman","","yes","Vici.org","","","27393","","","","","","","","","","","","","http://www.ostia-antica.org/regio4/8/8-3.htm","yes"
"1000321","Temple of the Fabri Navales","","temple","","Ostia Antica","Ostia","422995","IT","41.752764","12.286052","104","E","","late 2nd c. CE","161","192","2","","","","","","","Roman","","yes","Vici.org","","","27409","","","","","","","","","","","","","http://www.ostia-antica.org/regio3/2/2-1.htm","yes"
"1000322","Temple of Isis","","temple","","Isola Sacra","Portus","423012","IT","41.772774","12.255305","","","","","","","","","","","","","god","","","","Vici.org","","Isola Sacra","27423","","","","","","","","","","","","","http://www.ostia-antica.org/portus/s009.htm","no"
"1000323","Temple of Portumnus","","temple","","Fiumicino","Portus","423012","IT","41.780937","12.27154","","","","","","","","","","","","","god","","","","Vici.org","","","27428","","","","","","","","","","","","","http://www.ostia-antica.org/portus/t021.htm","no"
"1000324","Round Temple","","temple","","Ostia Antica","Ostia","422995","IT","41.75335","12.288047","329","NW","","2nd qu. 3rd c. CE","225","249","3","","","","","","","Roman","","yes","Vici.org","","","27444","","","","","","","","","","","","","http://www.ostia-antica.org/regio1/11/11-1.htm","no"
"1000325","Temple of the Round Altar","","temple","","Ostia Antica","Ostia","422995","IT","41.753693","12.286317","","","","","","","","","","","","","","","","","Vici.org","","","27449","","","","","","","","","","","","","http://www.ostia-antica.org/regio1/15/15-6.htm","yes"
"1000326","Temple with portico","","temple","","Cuma","Cumae","432808","IT","40.847906","14.057575","16","N","","early 1st c. CE","","","1","","","","","","","Roman","","","","","","","","","","","","","","","","","","","","yes"
"1000327","Masseria del Gigante","","temple","","Cuma","Cumae","432808","IT","40.847826","14.058799","280","W","","late 1st c. CE","","","1","","","","","","","Roman","","","","","","","","","","","","","","","","","","","","yes"
"1000328","Temple","","temple","Sanctuary Alto da Vigia","Colares","","","PT","38.824299","-9.47159","","","","","","","","","","","","","","","","","Vici.org","","","10721","256172","36997","","","","","","","","","","","","no"
"1000329","Temple","","temple","","Santiago do CacÃ©m","Mirobriga Celticorum","256303","PT","38.010284","-8.683709","","","","","","","","","","","","","","","","","Vici.org","","","10725","","","","","","","","","","","","","","no"
"1000330","Temple","","temple","","Ãvora","Ebora","256151","PT","38.572571","-7.907287","150","SE","","1st c. CE","","","1","","","","","","","","","","Vici.org","","","10744","862813573","","","","Roman_Temple_of_Ãvora","Q737441","","","","","","","","no"
"1000331","Temple","","temple","S. Miguel de Mota","Bairro dos Andorinhos","","","PT","38.64328","-7.44304","","","","","","","","","","","","","","","","","Vici.org","","","15153","256429","37000","","","","","","","","","","","","no"
"1000332","Temple","","temple","","Santana do Campo","Calanatia","","PT","38.76722","-8.03341","","","","","","","","","","","","","","","","","Vici.org","","","15154","256042","37145","","","","","","","","","","","","no"
"1000333","Temple","","temple","","CabeÃ§o de FrÃ¡guas","","","PT","40.419579","-7.22432","","","","","","","","","","","","","","","","","Vici.org","","","15250","","40134","","","","","","","","","","","","no"
"1000334","Temple","","temple","SantuÃ¡rio da Ns. das CabeÃ§as","","","","PT","40.339989","-7.41788","","","","","","","","","","","","","","","","","Vici.org","","","15251","","40135","","","","","","","","","","","","no"
"1000335","Temple","","temple","Sra. do Granja","","","","PT","40.05547","-7.25653","","","","","","","","","","","","","","","","","Vici.org","","","15252","","40136","","","","","","","","","","","","no"
"1000336","Temple","","temple","SantuÃ¡rio da Sra. do AlmortÃ£o","Idanha a Nova","","","PT","39.907059","-7.17339","","","","","","","","","","","","","","","","","Vici.org","","","15253","","40137","","","","","","","","","","","","no"
"1000337","Temple","","temple","SantuÃ¡rio de S. Pedro de Almuro","","","","PT","38.997742","-7.48622","","","","","","","","","","","","","","","","","Vici.org","","","15254","","40138","","","","","","","","","","","","no"
"1000338","Roman Temple","","temple","","Vic","Auso","246212","ES","41.929189","2.256857","271","W","","2nd c. CE","","","2","","","","","","","Roman","","yes","Vici.org","","","10779","383321670","","","","Roman_temple_of_Vic","Q2294240","","","","","","","","yes"
"1000339","Temple","","temple","","CÃ³rdoba","Colonia Patricia","256128","ES","37.884762","-4.77628","","","","1st c. CE","","","1","","","","","","","","","","Vici.org","","","10794","415113284","","","","Roman_temple_of_CÃ³rdoba","Q1106385","","","","","","","","no"
"1000340","Temple of Diana","Diana","temple","","MÃ©rida","Emerita Augusta","256155","ES","38.91658","-6.34435","143","SE","","","","","","","","","F","","god","Roman","","yes","Vici.org","","","11493","","","","place/augusta-emerita/augusta-emerita-photos/augusta-emerita-civic-forum","","","","","","","","","","yes"
"1000341","Temple","Trajan and the Roman Gods","temple","","AlcÃ¡ntara","","","ES","39.721661","-6.891493","","","","2nd c. CE","","","2","","","","M/F","","god,emperor","","","","Vici.org","","","14476","255966","25494","","","Roman_temple_of_AlcÃ¡ntara","Q7362337","","","","","","","","no"
"1000342","Fortuna","Fortuna","temple","","Los BaÃ±os de Fortuna","","","ES","38.209648","-1.11363","","","","","","","","","","","F","","god","","","","Vici.org","","","15389","265899","36550","","","","","","","","","","","","no"
"1000343","Temple","","temple","Cerro de los Santos","Montealegre del Castillo","","","ES","38.732769","-1.27022","","","","","","","","","","","","","","","","","Vici.org","","","15394","265862","37001","","","es=Cerro_de_los_Santos","Q5486840","","","","","","","","no"
"1000344","Sanctuary","","temple","Cancho Roano","Zalamea de la Serena","Iulipa","256236","ES","38.701099","-5.68604","","","","","","","","","","","","","","","","","Vici.org","","","15498","","39956","","","es=Cancho_Roano","Q2060316","","","","","","","","no"
"1000345","Temple","","temple","Los Cuadriales","Burguillos del Cerro","","","ES","38.432659","-6.59005","","","","","","","","","","","","","","","","","Vici.org","","","15552","256139","36995","","","","","","","","","","","","no"
"1000346","Sanctuary of Santa Eulalia de BÃ³veda","","temple","","BÃ³veda de Mera","","","ES","42.980151","-7.686026","","","","","","","","","","","","","","","","","Vici.org","","","15822","236646","37167","","","es=Santa_Eulalia_de_BÃ³veda","Q3284580","","","","","","","","no"
"1000347","Temple of Serapis","Serapis","temple","","L'Escala","Emporiae","246382","ES","42.133911","3.121315","","","","","","","","","","","","","god","","","","Vici.org","","","17713","","","","","","","","","","","","","","no"
"1000348","Forum Temple","","temple","","L'Escala","Emporiae","246382","ES","42.132835","3.117041","156","SE","","","","","","","","","","","","","","","Vici.org","","","17714","","","","","","","","","","","","","","no"
"1000349","Temple columns","","temple","","Sevilla","Colonia Iulia Romula","256210","ES","37.400253","-5.993706","","","","","","","","","","","","","","","","","Vici.org","","","23659","","","","","","","","","","","","","","no"
"1000350","Temple Noviodunum","","temple","","Jublains","Noiodounon Diablintum","69539","FR","48.26062","-0.498666","","","","","","","","","","","","","","","","","Vici.org","","","429","","18750","","","","","","","","","","","","no"
"1000351","Nymphaeum Aquae Segetae","Nymphs","temple","","Sceaux-du-GÃ¢tinais","Aquae Segetae","109330","FR","48.115402","2.622707","","","","","","","","","","","F","","god","","","","Vici.org","","","4326","","7863","","","","","","","","","","","","no"
"1000352","Temple","","temple","","Sanxay","","138575","FR","46.496559","-0.024869","85","E","","2nd c. CE","101","200","2","","","","","","","Gallo-Roman","","","Vici.org","","","6364","","","","","","","","","","","","","https://www.tourisme-vienne.com/en/activite/291/site-gallo-romain-de-sanxay","yes"
"1000353","Maison CarrÃ©e","","temple","","NÃ®mes","Nemausus","148142","FR","43.838333","4.356111","349","N","","","","","","","","","","","","","","","Vici.org","","","7858","","39300","","place/nemausus-nimes/nemausus-nimes-maison-carree","Maison_CarrÃ©e","Q677659","","","","","","","","yes"
"1000354","Small Twin Temple","","temple","","Saint-RÃ©my-de-Provence","Glanum","148093","FR","43.773114","4.832766","80","E","","20-15 BCE","-20","-15","-1","Last quarter 3rd c. CE","","","","","","","","yes","Vici.org","","","7903","","","","","","","","","","","","","","yes"
"1000355","Temple","","temple","","PouillÃ©","Tasciaca(?)","138608","FR","47.324047","1.299076","","","","","","","","","","","","","","","","","Vici.org","","","8017","","20524","","","","","","","","","","","","no"
"1000356","Roman Temple","","temple","","Orange","Colonia Arausio","148054","FR","44.135654","4.807766","","","","","","","","","","","","","","","","","Vici.org","","","8511","","","","","","","","","","","","","","no"
"1000357","Temple of Mercury","Mercury","temple","","Paris","Lutetia","109126","FR","48.843395","2.327117","","","","","","","","","","","M","","god","","","","Vici.org","","","9849","","","","","","","","","","","","","","no"
"1000358","Temple 'le Palais'","","temple","","Alba-la-Romaine","Alba Helviorum","167629","FR","44.561203","4.600079","","","","","","","","","","","","","","","","","Vici.org","","","10164","","","","","","","","","","","","","","no"
"1000359","Temple of Augustus and Livia","","temple","","Vienne","Colonia Vienna","167719","FR","45.525478","4.874246","90","E","","","","","","","","","","","emperor, family","","","","Vici.org","","","10170","","202070","","","it=Tempio_di_Augusto_e_Livia","Q3517516","","","","","","","","yes"
"1000360","Temple of the Cybele","","temple","","Vienne","Colonia Vienna","167719","FR","45.524319","4.875925","","","","","","","","","","","","","god","","","","Vici.org","","","10172","","","","","","","","","","","","","","no"
"1000361","Temple of Diana","Diana","temple","","Roppeviller","","","FR","49.103539","7.52761","","","","","","","","","","","F","","god","","","","Vici.org","","","10354","","","","","","","","","","","","","","no"
"1000362","Temple of Diana","Diana","temple","","NÃ®mes","Nemausus","148142","FR","43.839947","4.348574","","","","","","","","","","","F","","god","","","","Vici.org","","","10622","439736209","393010","","","","","","","","","","","","no"
"1000363","Sanctuary","","temple","","Le Vieil-Ãvreux","","","FR","49.003063","1.235978","","","","","","","","","","","","","","","","","Vici.org","","","10640","109007","","","","","Q2243148","","","","","","","","no"
"1000364","Temple of Mercury","Mercury","temple","","Niederbronn-les-Bains","","109209","FR","48.960583","7.616738","","","","","","","","","","","M","","god","","","","Vici.org","","","10648","","39152","","","","","","","","","","","","no"
"1000365","Sanctuary","","temple","","Villards-d'HÃ©ria","","","FR","46.423141","5.742032","","","","","","","","","","","","","","Gallo-Roman","","","Vici.org","","","10659","177659","","","","","","","","","","","","","no"
"1000366","Sanctuary","","temple","Mont Rivel","Ãquevillon","","","FR","46.76136","5.922335","","","","","","","","","","","","","","Gallo-Roman","","","Vici.org","","","10661","177583","","","","","","","","","","","","","no"
"1000367","Sanctuary","","temple","","Flaviers - Mouzon","Mosomagus","109183","FR","49.580894","5.105447","","","","","","","","","","","","","","","","","Vici.org","","","10663","","20618","","","","","","","","","","","","no"
"1000368","Temple of Mercury","","temple","","Izernore","Isarnodurum","177545","FR","46.2234","5.558579","","","","","","","","","","","","","","","","","Vici.org","","","10667","","20105","","","","","","","","","","","","no"
"1000369","Temple","","temple","FÃ¢","Barzan","Novioregum","138496","FR","45.535458","-0.879348","99","E","","","","","","","","","","","","Gallo-Roman","","yes","Vici.org","","","10672","","","","","","","","","","","","","","yes"
"1000370","Roman temple of ChÃ¢teau-Bas","","temple","Vineyard ChÃ¢teau-Bas","VernÃ¨gues","","","FR","43.681936","5.197151","327","NW","","1st BCE","-99","-9","-1","","","","","","","Roman","","yes","Vici.org","","","10684","148046","18074","","","fr=Temple_romain_de_ChÃ¢teau-Bas","Q516783","","","","","","","http://www.chateaubas.com/en/pages/history/temple.html","yes"
"1000371","Temple of Apollo","","temple","","Riez","Alebaece Reiorum Apollinarium","157805","FR","43.817055","6.088223","","","","","","","","","","","M","","god","","","","Vici.org","","","10697","","","","","fr=Colonnes_de_Riez","Q1272940","","","","","","","","no"
"1000372","Forum Temple","","temple","","Saint-Bertrand-de-Comminges","Lugdunum Convenarum","246477","FR","43.029804","0.573152","","","","","","","","","","","","","","","","","Vici.org","","","10770","","","","","","","","","","","","","","no"
"1000373","Temple","","temple","","Eu","Augusta Ambianorum","108771","FR","50.021584","1.462042","","","","","","","","","","","","","","","","","Vici.org","","","10923","","13746","","","","","","","","","","","","no"
"1000374","Temple complex","","temple","Les Vaux de la Celle","Genainville","Petromantalum(?)","","FR","49.120399","1.771297","","","","","","","","","","","","","","","","","Vici.org","","","11313","109004","18747","","","","","","","","","","","","no"
"1000375","Temple of Mars","Mars","temple","Haut BÃ©cherel","Corseul","Civitas Coriosolitum","69507","FR","48.471673","-2.14693","99","E","","1st c CE","51","100","1","end of 3rd c. CE","","","M","","god","Gallo-Roman","","yes","Vici.org","","","11360","636775194","20763","","","fr=Temple_de_Mars_(Corseul)","","","","","","","","","yes"
"1000376","Temple of Janus","Janus","temple","","Autun","Augustodunum","177460","FR","46.96125","4.288465","","","","","","","","","","","M","","god","","","","Vici.org","","","11367","","207950","","","Temple_of_Janus_(Autun)","Q1526555","","","","","","","","no"
"1000377","Sanctuary","","temple","","ChÃ¢teaubleau","","","FR","48.593163","3.109161","","","","","","","","","","","","","","","","","Vici.org","","","11418","108879","2130","","","","","","","","","","","","no"
"1000378","Temple","","temple","CherrÃ©","AubignÃ©-Racan","","492111677","FR","47.660224","0.235457","74","E","","","","","","","","","","","","","","","Vici.org","","","11881","","393800","","","","","","","","","","","","no"
"1000379","Temple","","temple","","Saint-Marcel","Argentomagus","138192","FR","46.599777","1.51518","","","","","","","","","","","","","","","","","Vici.org","","","11950","","","","","","","","","","","","","","no"
"1000380","Tour de Vesone","","temple","","PÃ©rigueux","Vesunna","138650","FR","45.179405","0.714345","","","","","","","","","","","","","","","","","Vici.org","","","11979","","206160","","","","Q3533474","","","","","","","","no"
"1000381","Temple","","temple","","Offemont","","","FR","47.658772","6.866085","","","","","","","","","","","","","","Gallo-Roman","","","Vici.org","","","14562","","170040","","","","","","","","","","","","no"
"1000382","Temple","","temple","forÃªt Halatte","Ognon","","","FR","49.242058","2.625384","","","","","","","","","","","","","","","","","Vici.org","","","14563","335533616","18751","","","","","","","","","","","","no"
"1000383","Temple","","temple","","Dax","Aquae Terebellicae","246173","FR","43.709648","-1.052306","","","","","","","","","","","","","","Gallo-Roman","","","Vici.org","","","14566","","206190","","","","Q3517676","","","","","","","","no"
"1000384","Sanctuary","","temple","","Margerides","","","FR","45.450756","2.426149","","","","","","","","","","","","","","Gallo-Roman","","","Vici.org","","","14568","138447","16974","","","","","","","","","","","","no"
"1000385","Temple of Mercury","","temple","ForÃªt de TanniÃ¨re","Archettes","","","FR","48.131313","6.57349","","","","","","","","","","","","","god","","","","Vici.org","","","14571","","20758","","","","","","","","","","","","no"
"1000386","Tour de Grisset","","temple","","FrÃ©teval","","","FR","47.896442","1.183712","","","","","","","","","","","","","","","","","Vici.org","","","14574","138623","18152","","","","","","","","","","","","no"
"1000387","Sanctuary of Mercury","Mercury","temple","Donon","Grandfontaine","","","FR","48.512527","7.164421","","","","","","","","","","","","","","Gallo-Roman","","","Vici.org","","","14577","822279250","15774","","","","","","","","","","","","no"
"1000388","Temple CathÃ©drale St Jean","","temple","","AlÃ¨s","","147988","FR","44.123901","4.0761","","","","","","","","","","","","","","","","","Vici.org","","","14586","","","","","","","","","","","","","","no"
"1000389","Fanum","","temple","","Civaux","Exidualum","138351","FR","46.444412","0.664659","","","","","","","","","","","","","","","","","Vici.org","","","14591","","","","","","","","","","","","","","no"
"1000390","Temple","","temple","","Grand","Grannum","109016","FR","48.383953","5.48573","","","","","","","","","","","","","","","","","Vici.org","","","14743","","7783","","","","","","","","","","","","no"
"1000391","Temple complex","","temple","","Castelnau-Montratier","","138277","FR","44.272472","1.294166","","","","","","","","","","","","","","","","","Vici.org","","","15033","","17730","","","","","","","","","","","","no"
"1000392","Sanctuary","","temple","","Drevant","Derventum","138327","FR","46.694786","2.520366","","","","","","","","","","","","","","","","","Vici.org","","","16293","","","","","","","","","","","","","","no"
"1000393","Fanum","","temple","","Bennecourt","","","FR","49.04372","1.570312","","","","","","","","","","","","","","","","","Vici.org","","","16326","","","","","","","","","","","","","","no"
"1000394","Sanctuary","","temple","","La BÃ¢tie-MontsalÃ©on","Mons Seleucus","167836","FR","44.456219","5.748653","","","","","","","","","","","","","","","","","Vici.org","","","16332","","","","","","","","","","","","","","no"
"1000395","Nymphaeum","Nymphs","temple","","Gennes","Geinum","138371","FR","47.337536","-0.232876","","","","","","","","","","","F","","god","","","","Vici.org","","","16398","","393910","","","","","","","","","","","","no"
"1000396","Summit Sanctuary","Jupiter","temple","","Mont Sacon","Nistos","","FR","42.981285","0.537025","","","","","","","","","","","","","","","","","Vici.org","","","16568","246520","18233","","","","","","","","","","","","no"
"1000397","Temple","","temple","","Saint-PÃ©-d'Ardet","","","FR","42.983734","0.669335","","","","","","","","","","","","","","","","","Vici.org","","","16569","","20154","","","","","","","","","","","","no"
"1000398","Temple","","temple","","Saint-Plancard","","","FR","43.171619","0.576446","","","","","","","","","","","","","","","","","Vici.org","","","16577","","20156","","","","","","","","","","","","no"
"1000400","Temple","","temple","","Vaugrenier","","","FR","43.623562","7.128598","","","","","","","","","","","","","","","","","Vici.org","","","16608","157943","17386","","","","","","","","","","","","no"
"1000401","Temple","","temple","","Rognes","","","FR","43.663326","5.347199","","","","","","","","","","","","","","","","","Vici.org","","","16612","148169","18072","","","","","","","","","","","","no"
"1000402","Temple Sainte Eulalie","","temple","Puech Caut","Lapanouse-de-Cernon","","127288246","FR","43.970982","3.099904","281","W","","Later Augustan","1","14","1","end of 2nd. c. CE","","","","","","","","","Vici.org","","","16632","","18276","","","","","","","","","","","","no"
"1000403","Temple","","temple","","La RÃ©ole","","","FR","44.586464","-0.029494","","","","","","","","","","","","","","","","","Vici.org","","","16660","","39399","","","","","","","","","","","","no"
"1000404","Fanum of Aron","","temple","","Aurillac","","","FR","44.926109","2.440561","","","","","","","","","","","","","","","","","Vici.org","","","16667","138193","8396","","","","Q3066668","","","","","","","","no"
"1000405","Temple","","temple","Le Combalou","Roquefort-sur-Soulzon","","","FR","43.974461","2.987631","","","","","","","","","","","","","","","","","Vici.org","","","16700","","19340","","","","","","","","","","","","no"
"1000406","Tour de Eysses","","temple","","Villeneuve-sur-Lot","Excisum","138349","FR","44.419743","0.721229","","","","","","","","","","","","","","","","","Vici.org","","","16703","","","","","","","","","","","","","","no"
"1000407","Temple","","temple","ChÃ¢telet","Saint-DÃ©sirat","","","FR","45.249901","4.79432","","","","","","","","","","","","","","","","","Vici.org","","","16715","","39298","","","","","","","","","","","","no"
"1000408","Temple","","temple","","Brion","Nouiomagos","138492","FR","45.282433","-0.838219","","","","","","","","","","","","","","","","","Vici.org","","","16717","","20175","","","","","","","","","","","","no"
"1000409","Sanctuary","","temple","Rajat","Murol","","","FR","45.591797","2.948923","","","","","","","","","","","","","","","","","Vici.org","","","16745","","20137","","","","","","","","","","","","no"
"1000410","Temple of Diana","","temple","","Aix-les-Bains","Aquae Sextiae","167650","FR","45.688812","5.914636","","","","","","","","","","","","","god","","","","Vici.org","","","16758","","","","","","","","","","","","","","no"
"1000411","Temple of Cybele","","temple","","Lyon","Colonia Lugdunum","167717","FR","45.759602","4.818432","","","","","","","","","","","","","god","","","","Vici.org","","","16770","","39462","","","","","","","","","","","","no"
"1000412","Temple","","temple","CÃ´tes de Clermont","Blanzat","","","FR","45.806771","3.078248","","","","","","","","","","","","","","","","","Vici.org","","","16776","","","","","","","","","","","","","","no"
"1000413","Temple of Mercury","","temple","Puy de DÃ´me","Orcines","","","FR","45.771854","2.964456","","","","","","","","","","","","","god","","","","Vici.org","","","16779","138464","17715","","","fr=Temple_de_Mercure_(puy_de_DÃ´me)","Q3517583","","","","","","","","no"
"1000414","Temple","","temple","","Chassenon","Cassinomagus","138275","FR","45.849098","0.767463","","","","","","","","","","","","","","","","","Vici.org","","","16795","","39339","","","","","","","","","","","","no"
"1000415","Fanum","Puy Lautard","temple","","Saint-Pardoux-Morterolles","","","FR","45.929768","1.869932","","","","","","","","","","","","","","","","","Vici.org","","","16805","138527","18100","","","","","","","","","","","","no"
"1000416","Temple","","temple","Puy-de-Joue","Saint-Goussaud","","","FR","46.033264","1.569519","","","","","","","","","","","","","","","","","Vici.org","","","16808","138556","37144","","","","","","","","","","","","no"
"1000417","Temple","","temple","Chez Rigros, Saint-Pardoux","Saint-Pardoux","","","FR","46.07193","1.3012","","","","","","","","","","","","","","","","","Vici.org","","","16814","","39297","","","","","","","","","","","","no"
"1000418","Sanctuary of Mars Mullo","","temple","","Allonnes","","","FR","47.968758","0.166472","","","","","","","","","","","","","god","Gallo-Roman","","","Vici.org","","","16820","","20731","","","","","","","","","","","","no"
"1000419","Twin Temples","","temple","Masamas","Saint-LÃ©omer","","","FR","46.399273","0.972868","","","","","","","","","","","","","","","","","Vici.org","","","16834","138451","17638","","","","","","","","","","","","no"
