id,name,dedicatee,type,location,city,country,latitude,longitude,orientation,compass,vowed,date,startdateearly,startdatelate,century,enddate,preceded,succeeded,sex,dedicationday,deitytype,culture,style,extant,source,meetings,note,vici,pleiades,dare,arachne,livius,wikipedia,wikidata,digitalromanforum,digitalesforumromanum,trismegistos,ads,cona,topostext,url,checked
"1000001",Temple of Aesculapius,Aesculapius,temple,Tiber Island,Rome,IT,41.890278,12.478333,,,"-292","-291","-291",,"-3",,,,M,January 1,hero,Roman,,,Ziolkowski,,,"23444",,,,,"Temple_of_Asclepius,_Rome",Q3983243,,,,,,419125SAsc,,
"1000002",Temple of Apollo Palatinus,Apollo,temple,Palatine Hill,Rome,IT,41.888854,12.485741,"227",SW,,"-28","-28",,"-1",,,,M,,god,Roman,,,"Blake, Stamper",,,,,,"8606",,Temple_of_Apollo_Palatinus,Q1236860,,,,,,419125SApP,,
"1000003",Temple of Apollo Sosianus/Medicus,Apollo,temple,Circus Flaminius,Rome,IT,41.8923136,12.4795912,"180",S,,"-431","-431",,"-5",,,,M,September 23,god,Roman,,,Stamper,senate,"vici.org; coords modified","15038","740034026",,"5665",,Temple_of_Apollo_Sosianus,Q582353,,,,,,419125SApo,,
"1000004",Temple of Bellona,Bellona,temple,Circus Flaminius,Rome,IT,41.89238,12.47989,"180",S,"-296",-292-280,"-292","-280","-3",,,,F,June 3,god,Roman,,,Ziolkowski,senate,,,,,"3467477",,"Temple_of_Bellona,_Rome",Q2595680,,,,,,419125SBel,,
"1000005",Temple of Bona Dea,Bona Dea,temple,Lesser Aventine,Rome,IT,41.880581,12.48979,,,,,"-123",,"-2",,,,F,May 1,god,Roman,,,Blake/Ziolkowski,,,,,,,,,,,,,,,,,
"1000007",Temple of Castor(es),Castor(es),temple,Forum,Rome,IT,41.891773,12.485755,"24",NE,,"-484","-484",,"-5",,,,M,27 January/15 July,hero,Roman,,,blake,senate,Vici.org,"15011",,,"5807",,,Q380530,,,,,,419125SCas,,
"1000008",Temple of Castor and Pollux,"Castor, Pollux",temple,Circus Flaminius,Rome,IT,,,"30",NE,,-179-91,"-179","-91","-2",,,,M,,hero,Roman,,,Coarelli,,,,,,"4052753",,,,,,,,,,,
"1000009",Temple of Ceres and Faustina,"Ceres, Faustina",temple,,Rome,IT,41.857844,12.524306,,,,,,,,,,,F,,"god, family",Roman,,,,,"Vici.org, DARE",,"422889","22917",,,,,,,,,,,,
"1000010","Temple of Ceres, Liber, and Libera","Ceres, Liber, Libera",temple,Aventine,Rome,IT,,,,,,"-493","-493",,"-5",,,,M/F,,god,Roman,,,,,,,,,,,"Sanctuary_of_Ceres,_Liber_and_Libera",Q3949870,,,,,,419125SCer,,
"1000011",Temple of Cessati Spiriti,,temple,,Rome,IT,41.862522,12.533184,,,,,,,,,,,,,,Roman,,,,,DARE,,"422892",,,,,,,,,,,,,
"1000012",Temple of the Divine Claudius,Claudius,temple,Caelian Hill,Rome,IT,41.887594,12.493367,,,,40-60,"40","60","1",,,,M,,emperor,Roman,,,,,,,,,"6228",,Temple_of_Claudius,,,,,,,419125SCla,,
"1000013",Temple of Concord,Concord,temple,Forum,Rome,IT,41.89293,12.484245,"123",SE,,"-121","-121",,"-2",,,,F,22 July/16 January,concept,Roman,,,Blake,senate,,,,,"5742",,,,,,,,,419125SCon,,
"1000014",Temple of Cybele/Magna Mater,Cybele/Magna Mater,temple,Palatine Hill,Rome,IT,41.889554,12.484984,"203",SW,,"-191","-191",,"-2",,,,F,April 11,god,Roman,,,Stamper,senate,Vici.org,"17956",,,"9110",,Temple_of_Cybele_(Palatine),Q383609,,,,,,419125SMMT,,
"1000015",Temple of Dea Dia,Dea Dia,temple,,Rome,IT,41.83614,12.44195,,,,,,,,,,,F,,god,Roman,,,,,DARE,,"422916","37153",,,,,,,,,,,,
"1000016",Temple of Diana,Diana,temple,Aventine,Rome,IT,41.882828,12.483194,,,,-499-400,"-499","-400","-5",,,,F,August 13,god,Roman,,,,,,,,,,,,,,,,,,,,
"1000017",Temple of the Divine Antoninus and the Divine Faustina,"Antoninus, Faustina",temple,Forum,Rome,IT,41.892139,12.486689,"217",SW,,"141","141",,"2",,,,M/F,,"emperor, family",Roman,,,Blake,,Vici.org,"15009",,,"5645",,Temple_of_Antoninus_and_Faustina,Q752555,,,,,,419125SFas,,
"1000018",Temple of the Divine Augustus,Augustus,temple,,Rome,IT,41.891616,12.484471,,,,,,,,,,,M,,emperor,Roman,,,Blake,,,,,,"5743",,Temple_of_Divus_Augustus,Q927222,,,,,,419125SDAT,,
"1000019",Temple of the Divine Julius,Julius,temple,Forum,Rome,IT,41.891943,12.486246,"300",NW,,"-29","-29",,"-1",,,,M,August 18,emperor,Roman,,,Stamper,,,"15048",,,"5744",,,Q1133288,,,,,,419125SJul,,
"1000020",Temple of the Divine Romulus,Romulus,temple,Forum,Rome,IT,41.891846,12.487166,"205",SW,,,,,,,,,M,,hero,Roman,,,,,Vici.org,"15044",,,"10545",,Temple_of_Romulus,,,,,,,419125SRom,,
"1000021",Temple of the Divine Trajan,Trajan,temple,Forum of Trajan,Rome,IT,,,,,,"128","128",,"2",,,,M,,emperor,Roman,,,Stamper,,,,,,,,,,,,,,,,,
"1000022",Temple of Elagabal,Elagabal,temple,,Rome,IT,41.889603,12.488894,,,,,,,,,,,M,,emperor,Roman,,,,,Vici.org,"11503",,,,,,,,,,,,,,
"1000023",Temple of Feronia,Feronia,temple,Campus Martius,Rome,IT,41.895163,12.476723,"90",E,-292-219,-292-219,"-292","-219","-3",,,,F,November 13,god,Roman,,,Stamper/Ziolkowski,,Pleiades: Temple C,"39266","967215409",,"5865",,,,,,,,,,,
"1000024",Temple of Fides,Fides,temple,Capitoline,Rome,IT,41.8914,12.4812,,,,"-254","-254",,"-3",,,,F,October 1,concept,Roman,,,Ziolkowski,senate,,,,,,,Temple_of_Fides,Q3983246,,,,,,,,
"1000025",Temple of Flora,Flora,temple,Circus Maximus,Rome,IT,,,,,,"-240","-240",,"-3",,,,F,April 28,nature,Roman,,,,,,,,,,,Temple_of_Flora,Q3983248,,,,,,,,
"1000026",Temple of Flora,Flora,temple,Quirinal,Rome,IT,,,,,,-292-219,"-292","-219","-3",,,,F,May 3,nature,Roman,,,,,,,,,,,,,,,,,,,,
"1000027",Temple of Fons/Fontus,Fons/Fontus,temple,extra portam fontinalem,Rome,IT,,,,,,"-231","-231","-219","-3",,,,M,October 13,nature,Roman,,,,,,,,,,,,,,,,,,,,
"1000028",Temple of Fors Fortuna,Fors Fortuna,temple,Right bank of Tiber,Rome,IT,,,,,,"-293","-292","-280","-3",,,,F,,concept,Roman,,,,,Vici.org,,"422925",,,,,,,,,,,,,
"1000029",Temple of Fortuna Huiusce Diei,Fortuna,temple,Campus Martius,Rome,IT,41.895387,12.476839,"90",E,,1-99,"1","99","1",,,,F,,concept,Roman,,yes,Stamper,,Pleiades: Temple B,"17946","967215409",,"6515",,,,,,,,,419125SFor,,
"1000030",Temple of Fortuna,Fortuna,temple,Forum Boarium,Rome,IT,41.890791,12.481069,"183",S,,"-396","-396",,"-4",,,,F,,concept,Roman,,,Platner and Ashby,,,,,,,,,,,,,,,,,
"1000031",Temple of Fortuna Muliebris,Fortuna,temple,,Rome,IT,41.843745,12.555806,,,,,,,,,,,F,,concept,Roman,,,,,DARE,,,"37154",,,,,,,,,,,,
"1000032",Temple of the Divine Hadrian,Hadrian,temple,Campus Martius,Rome,IT,41.899876,12.479621,"90",E,,"145","145",,"2",,,,M,,emperor,Roman,,,Blake,,Vici.org,"15032",,,"5651",,Temple_of_Hadrian,Q431062,,,,,,419125SHad,,
"1000033",Temple of Hercules Magnus Custos,Hercules,temple,Circus Flaminius,Rome,IT,,,,,-225-223,"-220","-220",,"-3",,,,M,June 4,hero,Roman,,,Ziolkowski,,Pleiades,,,,,,,,,,,,,,,
"1000034",Temple of Hercules Musarum,Hercules,temple,Circus Flaminius,Rome,IT,41.8931188,12.477733,"208",SW,,"-187","-187",,"-2",,,,M,June 30,hero,Roman,,,Arachne,,,,,,"3467458",,,,,,,,,,,
"1000035",Temple of Hercules Victor,Hercules,temple,ad portam trigeminam,Rome,IT,41.8887057,12.4806393,"93",E,,"-142","-142",,"-2",,,,M,,hero,Roman,,yes,,,,"15006","825969667",,"10771",,Temple_of_Hercules_Victor,Q576929,,,,,,419125SHrc,,
"1000036",Temple of Hercules Victor,Hercules,temple,,Tivoli,IT,,,,,,-89-82,"-89","-82","-1",,,,M,,hero,Roman,,,Stamper,,,,,,,,,,,,,,,,,
"1000037",Temple of Hercules Invictus (Victor),Hercules,temple,ad circum maximum,Rome,IT,,,,,-292-219,"-292","-219",,"-3",,,,M,August 13,hero,Roman,,,,,,,,,,,,,,,,,,,,
"1000038",Temple of Honos and Virtus,"Honor, Virtue",temple,ad Portam Capenam,Rome,IT,,,,,"-222","-205","-205",,"-3",,,"1000154",F,July 17,concept,Roman,,,,senate,,,,,,,,,,,,,,,,
"1000039",Temple at Il Torraccio,,temple,,Rome,IT,41.994283,12.492366,,,,,,,,,,,,,,Roman,,,,,DARE,,"3467477","37165",,,,,,,,,,,,
"1000040",Temple of Isis at via Labicana,Isis,temple,,Rome,IT,41.890049,12.501237,,,,,,,,,,,F,,god,Roman,,,,,Pleiades,"19353",,,,,,Q16612725,,,,,,,,
"1000041",Temple of Isis/Serapis,Isis/Serapis,temple,Campus Martius,Rome,IT,41.897221,12.479167,,,,,,,,,,,F,,god,Roman,,,Blake,,Pleiades,"17963",,,,,Temple_of_Isis_and_Serapis,Q2288275,,,,,,419125SIsS,,
"1000042",Temple of Janus,Janus,temple,Forum Holitorium,Rome,IT,41.891289,12.479947,"71",E,"-260","-260","-240",,"-3",,,,M,August 17,god,Roman,,,,,,,,,"10761",,Temple_of_Janus_(Forum_Holitorium),Q3983253,,,,,,,,
"1000043",Temple of Juno Curritis,Juno,temple,Campus Martius,Rome,IT,41.894862,12.476906,,,,-292-219,"-292","-219","-3",,,,F,October 7,god,Roman,,,Ziolkowski,,,,,,,,,,,,,,,,,
"1000044",Temple of Juno Lucina,Juno,temple,Esquiline Hill,Rome,IT,,,,,,"-375","-375",,"-4",,,,F,March 1,god,Roman,,,Ziolkowski,,,,,,,,,,,,,,,,,
"1000045",Temple of Juno Moneta,Juno,temple,Capitoline Hill,Rome,IT,41.894009,12.483497,,,"-345","-344","-344",,"-4",,,,F,June 1,god,Roman,,,,,,,,,"3910432",,Temple_of_Juno_Moneta,Q951089,,,,,,419125SJuM,,
"1000046",Temple of Juno Regina,Juno,temple,Aventine Hill,Rome,IT,41.88444,12.47972,,,"-396","-392","-392",,"-4",,,,F,September 1,god,Roman,,,Ziolkowski,,,,,,,,,,,,,,,,,
"1000047",Temple of Juno Regina,Juno,temple,Circus Flaminius,Rome,IT,41.893141,12.478602,"208",SW,,"-179","-179",,"-2",,,,F,December 23,god,Roman,,,,,,,,,"3467454",,,,,,,,,,,
"1000048",Temple of Juno Sospita,Juno,temple,Forum Holitorium,Rome,IT,41.891093,12.479937,"71",E,,-197-194,"-197","-194","-2",,,,F,February 1,god,Roman,,,,,,,,,,,,,,,,,,419125SJuS,,
"1000049",Temple of Jupiter,Jupiter,temple,,Rome,IT,41.840026,12.536854,,,,,,,,,,,M,,god,Roman,,,,,DARE,,,"37156",,,,,,,,,,,,
"1000050",Capitolium,"Jupiter, Juno, Minerva",temple,,Jerusalem,IL,31.776306,35.235619,"349",N,,"130","130",,"2",,,,M/F,,god,Roman,,no,,,,,,,,,,,,,,,,,,
"1000051",Temple of Jupiter Damascenus,Jupiter,temple,,Damascus,SY,33.510833,36.300833,,,,"14","14",,"1",,,,M,,god,Roman,,yes,Segal2013,,,,,,,,,,,,,,,,,
"1000052",Temple of Jupiter,Jupiter,temple,,Yarbrud,SY,33.966667,36.666667,,,,,,,,,,,M,,god,Roman,,,,,,,,,,,,,,,,,,,,
"1000053",Temple of Jupiter Heliopolitanus,Jupiter,temple,Baalbek,Heliopolis,LB,34.006839,36.203397,"76",E,,"135","135",,"2",,,,M,,god,Roman,,yes,,,,"16415",,,,place/heliopolis-baalbek/baalbek-photos/baalbek-temple-of-jupiter/,Temple_of_Jupiter_(Roman_Heliopolis),Q21079381,,,,,,,,yes
"1000054",Temple of Jupiter Anxur,Jupiter,temple,,Terracina,IT,41.290817,13.260113,"175",S,,,,,,,,,M,,god,Roman,,,,,Coord from Google maps,,"433143",,,,,Q3983252,,,,,,413133SJAn,,
"1000055",Temple of Jupiter Conservator,Jupiter,temple,Capitoline Hill,Rome,IT,,,,,,,,,,,,,M,,god,Roman,,,Stamper,,,,,,,,,,,,,,,,,
"1000056",Temple of Jupiter Custos,Jupiter,temple,Capitoline Hill,Rome,IT,41.891825,12.481892,,,,,,,,,,,M,,god,Roman,,,,,,,,,,,,,,,,,,,,
"1000057",Temple of Jupiter Dolichenus,Jupiter,temple,Aventine Hill,Rome,IT,41.88319,12.4804,,,,,,,,,,,M,,god,Roman,,,Blake,,Location from Arachne,,,,"6074",,,,,,,,,,,
"1000058",Temple of Jupiter Feretrius,Jupiter,temple,Capitoline Hill,Rome,IT,,,,,,-752-751,"-752","-751","-8",,,,M,,god,Roman,,,,,,,,,,,,,,,,,,,,
"1000059",Temple of Jupiter Heliopolitanus,Jupiter,temple,Janiculum,Rome,IT,,,,,,late 1st c. CE,"75","100","1",,,,M,November 29,god,Roman,,,Blake,,,,,,,,,,,,,,,,,
"1000060",Temple of Jupiter Invictus,Jupiter,temple,Palatine Hill,Rome,IT,,,,,,-180-167,"-180","-167","-2",,,,M,,god,Roman,,,Ziolkowski,,,,,,,,,,,,,,,,,
"1000061",Temple of Jupiter Libertas,Jupiter,temple,Aventine Hill,Rome,IT,,,,,,"-246","-246",,"-3",,,,M,April 13,god,Roman,,,Ziolkowski,,,,,,,,,,,,,,,,,
"1000062",Temple of Jupiter Capitolinus/Optimus Maximus,Jupiter,temple,Capitoline Hill,Rome,IT,41.892222,12.481667,"152",SE,,"-509","-509",,"-6",,,,M,September 13,god,Roman,,,Blake,senate,,"17971","871801169",,"3910430",,Temple_of_Jupiter_Optimus_Maximus,Q586468,,,,,,419125SJCa,,
"1000063",Temple of Jupiter Patulaeius,Jupiter,temple,,Ostia,IT,,,,,,-299-200,"-299","-200","-3",,,,M,,god,Roman,,,,,,,,,,,,,,,,,,,,
"1000064",Temple of Jupiter,Jupiter,temple,,Pompeii,IT,40.7499,14.4845,,,,mid-2nd c. BCE,"-175","-125","-2",,,,M,,god,Roman,,,,,,,,,,,,,,,,,,,,
"1000065",Temple of Jupiter Sospita,Jupiter,temple,,,,,,,,,,,,,,,,M,,god,Roman,,,Stamper,,,,,,,,,,,,,,,,,
"1000066",Temple of Jupiter Stator,Jupiter,temple,ad portam Mugoniam,Rome,IT,41.890487,12.488793,,,"-294","-294","-292","-218","-3",,,,M,June 27,god,Roman,,,,senate,Tenative coordinates,,,,,,,,,,,,,,,
"1000067",Temple of Jupiter Stator,Jupiter,temple,"Porticus Metelli, Circus Flaminius",Rome,IT,41.892897,12.479021,"208",SW,,"-146","-146",,"-2",,,,M,,god,Roman,,,,,,,,,,,,,,,,,,,,
"1000068",Temple of Jupiter Tonans,Jupiter,temple,Capitoline Hill,Rome,IT,,,,,,"-22","-22",,"-1",,,,M,September 1,god,Roman,,,,,,,,,,,,,,,,,,,,
"1000069",Temple of Jupiter Victor,Jupiter,temple,Quirinal Hill,Rome,IT,,,,,"-295",-292-219,"-295","-291","-3",,,,M,April 13,god,Roman,,,Blake,,,,,,,,,,,,,,,,,
"1000070",Temple of Jupiter/Baalshamin,"Jupiter, Baalshamin",temple,,Kedesh,IL,33.112906,35.531175,,,,,,,,,,,M,,god,Roman,,,,,,,,,,,,,,,,,,,,
"1000071",Temple of Juturna,Juturna,temple,Campus Martius,Rome,IT,41.895664,12.476876,"90",E,"-242",-242-219,"-242","-219","-3",,,,F,January 11,god,Roman,,,Ziolkowski,,Pleiades: Temple A,"17946","967215409",,"5864",,,,,,,,,419125SFer,,
"1000072",Temple of Juventas,Juventas,temple,Circus Maximus,Rome,IT,,,,,,"-193","-193",,"-2",,,,F,,concept,Roman,,,,,,,,,,,,,,,,,,,,
"1000073",Temple of the Lares,Lares,temple,in summa Sacra Via,Rome,IT,,,,,,-292-219,"-292","-219","-3",,,,M,June 27,god,Roman,,,,,,,,,,,,,,,,,,,,
"1000074",Temple of the Lares Permarini,Lares Permarini,temple,Campus Martius,Rome,IT,41.894983,12.476957,"90",E,,"-179","-179",,"-2",,,,M,,god,Roman,,,,,Pleiades: Temple D,"17946","967215409",,"6516",,,,,,,,,419125SLPe,,
"1000075",Temple of Luna,Luna,temple,Aventine Hill,Rome,IT,,,,,,-292-219,"-292","-219","-3",,,,F,March 31,nature,Roman,,,,,,,,,,,,,,,,,,,,
"1000076",Temple of Mars,Mars,temple,Circus Flaminius,Rome,IT,,,,,,"-138","-138",,"-2",,,,M,,god,Roman,,,,,,,,,,,Temple_of_Mars,,,,,,,,,
"1000077",Temple of Mars,Mars,temple,North Via Appia,Rome,IT,,,,,"-390","-388","-388",,"-4",,,,M,June 1,god,Roman,,,,,,,,,,,,,,,,,,,,
"1000078",Temple of Mars Ultor,Mars,temple,Forum of Augustus,Rome,IT,41.894444,12.486944,"233",SW,,"-2","-2",,"-1",,,,M,,god,Roman,,,Stamper,,,,,,"5747",,it=Tempio_di_Marte_Ultore,Q679665,,,"43987",,,419125SMUl,,
"1000079",Temple of Mater Matuta,Mater Matuta,temple,Forum Boarium,Rome,IT,41.89081,12.481398,"183",S,,"-368","-368",,"-4",,,,F,June 11,god,Roman,,,Stamper,,,,,,,,,,,,,,,419125SMMa,,
"1000080",Temple of Matidia,Matidia,temple,Campus Martius,Rome,IT,41.899964,12.478081,,,,"119","119",,"2",,,,F,,family,Roman,,,Stamper,,,,,,,,,,,,,,,,,
"1000081",Mausoleum of Romulus,,tomb,,Rome,IT,41.8550631,12.5181785,,,,early 4th c. CE,,,"4",,,,,,hero,Roman,,,,,DARE,,,"23842",,,,,,,,,,,,
"1000082",Temple of Mercury,Mercury,temple,Aventine Hill,Rome,IT,,,,,,"-495","-495",,"-5",,,,M,,god,Roman,,,,,,,,,,,,,,,,,,,,
"1000083",Temple of Minerva,Minerva,temple,Aventine Hill,Rome,IT,,,,,-263-262,-263-260,"-263","-260","-3",,,,F,June 19,god,Roman,,,,,Vici.org,,,,,,,,,,,,,,,
"1000084",Temple of Minerva Medica,Minerva,temple,Esquiline Hill,Rome,IT,,,,,,-399-300,"-399","-300","-4",,,,F,,god,Roman,,,,,,,,,,,,,,,,,,,,
"1000085",Temple of Minerva,Minerva,temple,Forum of Nerva,Rome,IT,41.893664,12.487089,"228",SW,,,,,,,,,F,,god,Roman,,,Arachne,,,,,,"8405",,,,,,,,,,,
"1000086",Mithraeum Barberini,Mithras,mithraeum,,Rome,IT,41.902964,12.4891,,,,,,,,,,,,,,Roman,,,,,DARE,,,"45672",,,,,,,,,,,,
"1000087",Mithraeum of Orazio Muti,Mithras,mithraeum,,Rome,IT,41.89981,12.485662,,,,,,,,,,,,,,Roman,,,,,DARE,,,"45673",,,,,,,,,,,,
"1000088",Mithraeum of San Clemente,Mithras,mithraeum,,Rome,IT,41.889675,12.497281,,,,,,,,,,,,,,Roman,,,,,"Vici.org; DARE","23522",,"45666",,,,,,,,,,,,
"1000089",Mithraeum of Santa Prisca,Mithras,mithraeum,,Rome,IT,41.883213,12.483655,,,,,,,,,,,,,,Roman,,,,,DARE,,,"45667",,,,,,,,,,,,
"1000090",Mithraeum of Santo Stefano Rotondo,Mithras,mithraeum,,Rome,IT,41.884655,12.496744,,,,,,,,,,,,,,Roman,,,,,DARE,,,"45669",,,,,,,,,,,,
"1000091",Mithraeum of the Baths of Caracalla,Mithras,mithraeum,,Rome,IT,41.879922,12.493118,,,,,,,,,,,,,,Roman,,,,,DARE,,,"45668",,,,,,,,,,,,
"1000092",Mithraeum of the Campidoglio,Mithras,mithraeum,,Rome,IT,41.89291,12.482628,,,,,,,,,,,,,,Roman,,,,,DARE,,,"45675",,,,,,,,,,,,
"1000093",Mithraeum of the Circus Maximus,Mithras,mithraeum,,Rome,IT,41.888114,12.482856,,,,,,,,,,,,,,Roman,,,,,DARE,,,"45670",,,,,,,,,,,,
"1000094",Mithraeum of the Crypta Balbi,Mithras,mithraeum,,Rome,IT,41.894242,12.479176,,,,,,,,,,,,,,Roman,,,,,"DARE; coords updated",,,"45674",,,,,,,,,,,,
"1000095",Mithraeum of the Esquiline,Mithras,mithraeum,,Rome,IT,41.894894,12.501063,,,,,,,,,,,,,,Roman,,,,,DARE,,,"45671",,,,,,,,,,,,
"1000096",Temple at Monte del Grano,,temple,,Rome,IT,41.865272,12.549292,,,,,,,,,,,,,,Roman,,,,,,,"422973",,,,,,,,,,,,,
"1000097",Temple of Neptune,Neptune,temple,Circus Flaminius,Rome,IT,,,,,-257-229,-257-229,"-257","-229","-3",,,,M,December 1,god,Roman,,,,,,,,,"3467478",,Temple_of_Neptune_(Rome),Q2489646,,,,,,419125SNpt,,
"1000098",Nymphaeum of the Villa dei Quintili,Nymphs,temple,,Rome,IT,41.8279699,12.5480362,,,,,,,,,,,F,,god,Roman,,,,,DARE,,,"23839",,,,,,,,,,,,
"1000099",Nymphaeum Septizodium,Nymphs,temple,Campus Martius,Rome,IT,41.885632,12.488719,,,,,,,,,,,F,,god,Roman,,,,,Vici.org,"17962",,,,,,Q1234446,,,,,,,,
"1000100",Temple of the Nymphs,Nymphs,temple,,Rome,IT,41.895163,12.478714,,,,,,,,,,,F,August 23,god,Roman,,,,,,,,,"6079",,,,,,,,,,,
"1000101",Temple of Ops Opifera,Ops Opifera,temple,Capitoline Hill,Rome,IT,41.895163,12.478714,,,"-250",-250-219,"-250","-219","-3",,,,F,August 23,concept,Roman,,,,,,,,,,,,,,,,,,,,
"1000102",Temple of Pales,Pales,temple,Palatine Hill,Rome,IT,,,,,"-267",-267-219,"-267","-219","-3",,,,F,July 7,god,Roman,,,,,,,,,,,,,,,,,,,,
"1000103",Pantheon,Pantheon,temple,Campus Martius,Rome,IT,41.89856,12.47685,"354",N,,"126","126",,"2",,,,M/F,,god,Roman,,,,,Vici.org,"7853","128044615",,"5664",,"Pantheon,_Rome",Q99309,,,,,"700000158",419125SPan,,
"1000104",Temple of Pax,Peace,temple,,Rome,IT,41.8926,12.4876,"323",NW,,"75","75",,"1",,,,F,,concept,Roman,,,,,Orientation = Mars Ultor + 90,,,,,,"Temple_of_Peace,_Rome",Q1456939,,,,,,419125SPax,,
"1000105",Temple of the Penates,Penates,temple,Velian Hill,Rome,IT,,,,,,-292-219,"-292","-219","-3",,,,M,,god,Roman,,,,,,,,,"10557",,,,,,,,,,,
"1000106",Temple of Portunus,Portunus,temple,Forum Boarium,Rome,IT,41.889232,12.480883,"347",N,-292-260,-292-260,"-292","-219","-3",,,,M,August 17,god,Roman,,,Stamper,,"Vici.org; DARE","11602","494660670","22924","5932",rome/rome-photos/rome-temple-of-portunus,Temple_of_Portunus,Q849241,,,,,,419125SFoV,,
"1000107",Temple of Quirinus,Quirinus,temple,Quirinal Hill,Rome,IT,,,,,"-325","-293","-293",,"-3",,,,M,February 17,god,Roman,,,,,,,,,,,,,,,,,,,,
"1000108",Temple of Robigo,Robigo,sanctuary,,Rome,IT,41.959271,12.447668,,,,,,,,,,,F,,nature,Roman,,,,,DARE,,"423024","37158",,,,,,,,,,,,
"1000109",Temple of Salus,Salus,temple,Quirinal Hill,Rome,IT,,,,,"-311","-303","-303",,"-4",,,,F,,concept,Roman,,,,,,,,,,,,,,,,,,,,
"1000110",Temple of Saturn,Saturn,temple,Forum,Rome,IT,41.892468,12.484181,"32",NE,,"-498","-498",,"-5",,,,M,December 17,god,Roman,,,,,Pleiades,"15012",,,"5644",,Temple_of_Saturn,Q746721,,saturntempel,,,,419125SSat,,
"1000111",Temple of Sol,Sol,temple,Campus Agrippae,Rome,IT,,,,,,"273","273",,"3",,,,M,,nature,Roman,,,,,,,,,,,,,,,,,,,,
"1000112",Temple of Sol and Luna,"Sol, Luna",temple,Circus Maximus,Rome,IT,,,,,,-292-219,"-292","-219","-3",,,,M/F,August 28,nature,Roman,,,,,,,,,,,,,,,,,,,,
"1000113",Temple of Spes,Spes,temple,Forum Holitorium,Rome,IT,41.890962,12.480052,"71",E,"-258-257, -254, -249",-258-249,"-258","-249","-3",,,,F,August 1,concept,Roman,,,,,,,,,"10760",,,,,,,,,419125SSpe,,
"1000114",Temple of Summanus,Summanus,temple,Circus Maximus,Rome,IT,,,,,,-278-275,"-278","-275","-3",,,,M,June 20,god,Roman,,,,,,,,,,,,,,,,,,,,
"1000115",Temple of Sybil,Sybil,temple,,Tivoli,IT,41.966809,12.800843,,,,-150-125,"-150","-125","-2",,,,F,,god,Roman,,,Stamper,,Vici.org,,,,,,,,,,,,,,,
"1000116",Temple of Tellus,Tellus,temple,Esquiline Hill,Rome,IT,,,,,"-268",-268-219,"-268","-219","-3",,,,F,December 13,nature,Roman,,,,senate,,,,,,,Temple_of_Tellus,Q16612739,,,,,,419125STel,,
"1000117",Temple of the Tempestates,Tempestates,temple,extra Portam Capenam,Rome,IT,,,,,"-259",-259-240,"-259","-240","-3",,,,F,December 23,nature,Roman,,,,,,,,,,,,,,,,,,,,
"1000118",Temple at S. Salvatore in Campo,,temple,Campus Martius,Rome,IT,41.893685,12.474003,"121",SE,,,,,,,,,M,,,Roman,,,,,,,,,"3467479",,,,,,,,,,,
"1000119",Temple of Tiberinus,Tiberinus,temple,Tiber Island,Rome,IT,,,,,,-292-219,"-292","-219","-3",,,,M,December 8,nature,Roman,,,,,,,,,,,,,,,,,,,,
"1000120",Tomb of Cecilia Metella,,tomb,Via Appia,Rome,IT,41.852196,12.520981,,,,,,,,,,,F,,,Roman,,,,,"Pleiades; vici.org",,"423064",,,,,,,,,,,,,
"1000121",Temple of Veiovis,Veiovis,temple,Inter duos lucos,Rome,IT,41.892776,12.483611,"220",SW,,,,,,,,,M,March 7,god,Roman,,,,,Pleiades,"17964",,,"1319962",,,Q764141,,,,,,,,
"1000122",Temple of Venus and Roma,"Venus, Rome",temple,,Rome,IT,41.890812,12.490168,"113",SE,,140-145,"140","145","2",,,,F,,"god, city",Roman,,,,,Pleiades,"15008",,,"7481",,Temple_of_Venus_and_Roma,Q430792,,,,,,419125SVeR,,
"1000123",Temple of Venus Genetrix,Venus,temple,Forum of Julius,Rome,IT,41.8942,12.4848,"130",SE,,"-46","-46",,"-1",,,,F,,god,Roman,,,Blake,,Pleiades,,,,"5656",,Temple_of_Venus_Genetrix,Q2459870,,,,,,419125SVeG,,
"1000124",Temple of Venus Obsequens,Venus,temple,Circus Maximus,Rome,IT,,,,,"-295","-290","-290",,"-3",,,,F,August 19,god,Roman,,,,,,,,,,,,,,,,,,,,
"1000125",Temple of Venus Victrix,Venus,temple,Campus Martius,Rome,IT,41.895335,12.473014,"90",E,,"-55","-55",,"-1",,,,F,,god,Roman,,yes,Stamper,senate,"Pleiades; coords modified",,,,,,,,,,,,,,,
"1000126",Temple of the Divine Vespasian and the Divine Titus,"Vespasian, Titus",temple,Forum,Rome,IT,41.892876,12.484081,"119",SE,,,,,,,,,M,,emperor,Roman,,,,,Pleiades,"15042",,,"5643",,,Q731284,,,,,,,,
"1000127",Temple of Vesta,Vesta,temple,Forum,Rome,IT,41.891792,12.486141,"35",NE,,"-575","-575",,"-6",,,,F,,god,Roman,,,Stamper,,Pleiades,"15010",,,"8407",,Temple_of_Vesta,,,,,,,419125SVes,,
"1000128",Temple of Vesta,Vesta,temple,,Tivoli,IT,41.9667,12.8009,"190",S,,early 1st c. BCE,"-99","-75","-1",,,,F,,god,Roman,,,,,Pleiades,"4381",,,"11457",,"Temple_of_Vesta,_Tivoli",Q1219688,,,,,,,,
"1000129",Temple of Vica Pota,Vica Pota,temple,Velian Hill,Rome,IT,,,,,,-292-219,"-292","-219","-3",,,,F,January 9,god,Roman,,,,,,,,,,,,,,,,,,,,
"1000130",Temple of Victory,Victoria,temple,Palatine Hill,Rome,IT,41.889418,12.48521,"219",SW,"-305","-294","-294",,"-3",,,,F,August 1,concept,Roman,,,Stamper,,Pleiades,,,,,,Temple_of_Victory,Q1517031,,,,,,419125SViT,,
"1000131",Temple of Volcanus,Volcanus,temple,Campus Martius,Rome,IT,,,,,,-292-219,"-292","-219","-3",,,,M,August 23,god,Roman,,,,,,,,,,,,,,,,,,,,
"1000132",Temple of Vortumnus,Vortumnus,temple,Aventine Hill,Rome,IT,,,,,"-264",-264-219,"-264","-219","-3",,,,M,August 13,god,Roman,,,,,,,,,,,,,,,,,,,,
"1000133",Temple of Moneta,Moneta,temple,Alban Mount,,IT,,,,,,"-168","-168",,"-2",,,,F,June 1,god,Roman,,,,,,,,,,,,,,,,,,,,
"1000134",Temple of Janus Quadrifons,Janus,temple,Forum Transitorium,Rome,IT,,,,,,81-96,"81",,"1",,,,M,,god,Roman,,,,,,,,,,,,,,,,,,,,
"1000135",Temple of Veiovis,Veiovis,temple,Tiber Island,Rome,IT,,,,,,,,,,,,,M,,god,Roman,,,,,,,,,,,,,,,,,,,,
"1000136",Temple of Aesculapius,Aesculapius,temple,Esquiline,Rome,IT,,,,,,,,,,,,,M,,hero,Roman,,no,,,,,,,,,,,,,,,,,,
"1000137",Capitolium,"Jupiter, Juno, Minerva",temple,,Cosa,IT,42.410911,11.286364,"68",E,,,,,,,,,M/F,,god,Roman,,yes,,,,,,,,,,,,,,,,,,
"1000138",Capitolium,"Jupiter, Juno, Minerva",temple,,Cumae,IT,40.848488,14.057007,"105",E,,"26",,,,,,,M/F,,god,Roman,,yes,,,,"14783",,,,,,,,,,,,,,
"1000139",Capitolium,"Jupiter, Juno, Minerva",temple,,Verona,IT,45.443872,10.996195,"144",SE,,,,,,,,,M/F,,god,Roman,,,,,,,,,,,,,,,,,,,,
"1000140",Capitolium,"Jupiter, Juno, Minerva",temple,,Scarbantia,HU,47.68489,16.58305,"208",SW,,,,,,,,,M/F,,god,Roman,,,,,,,,,,,,,,,,,,,,
"1000141",Capitolium,"Jupiter, Juno, Minerva",temple,,Constantinople,TR,41.013342,28.956067,,,,"330","330",,,,,,M/F,,god,Roman,,no,,,,,,,,,,,,,,,,,,
"1000142",Temple of Augustus,"Augustus, Rome",temple,,Pula,HR,44.870213,13.841842,"156",SE,,,"-2","14","1",,,,M/F,,"emperor, city",Roman,,yes,,,,,,,,,"Temple_of_Augustus,_Pula",Q770030,,,,,,,,
"1000143",Temple of Augustus,,temple,,Barcelona,ES,41.383351,2.177103,"314",NW,,1st c. BCE,,,"-1",,,,M,,emperor,Roman,,yes,,,,,,,,,"Temple_of_Augustus,_Barcelona",Q3819019,,,,,,,,
"1000144",Temple of Augustus,Augustus,temple,,Pozzuoli,IT,40.821276,14.120447,"178",S,,,,,"1",,,,M,,emperor,Roman,,yes,,,,,,,,,,,,,,,,,,
"1000145",Capitolium,"Jupiter, Juno, Minerva",temple,,Althiburos,TN,35.873886,8.785101,"43",NE,,,,,,,,,M/F,,god,Roman,,yes,,,,,,,,,,,,,,,,,,
"1000146",Unknown,,temple,,Althiburos,TN,35.874468,8.785616,"224",SW,,,,,,,,,,,,Roman,,yes,,,,,,,,,,,,,,,,,,
"1000147",Temple of Minerva,Minerva,temple,,Tebessa,DZ,35.404638,8.122492,"121",SE,,,,,,,,,F,,god,Roman,,yes,,,,,,,,,,,,,,,,,,
"1000148",Temple A,"Apollo, Artemis, Aphrodite",temple,,Laodicea on the Lycus,TR,37.836269,29.109676,"27",NE,,2nd c. CE,,,"2",,,,M/F,,god,Roman,,yes,,,,"18182",,,,,,,,,,,,,,
"1000149",Temple of Trajan,Trajan,temple,,Pergamon,TR,39.132812,27.183256,"201",S,,2nd c. CE,,,"2",,,,M,,emperor,Roman,,yes,,,,,,,,,,,,,,,,,,
"1000150",Temple of Dionysus,Dionysus,temple,,Pergamon,TR,39.132283,27.182573,"166",S,,early 3rd c. CE,,,"3",,,,M,,god,Roman,,yes,,,,,,,,,,,,,,,,,,
"1000151",Temple of Consus,Consus,temple,Aventine,Rome,IT,,,,,"-272","-272","-272","-218","-3",,,,M,December 12,god,Roman,,no,Ziolkowski,,,,,,,,,,,,,,,,,
"1000152",Temple of Hercules at the Colline Gate,Hercules,temple,ad portam collinam,Rome,IT,,,,,,,,"-211",,,,,M,,hero,Roman,,no,Ziolkowski,,,,,,,,,,,,,,,,,
"1000153",Temple of Honos,Honor,temple,extra portam collinam,Rome,IT,41.906487,12.498676,,,,-292-219,"-292","-219","-3",,,,M,,concept,Roman,,no,Ziolkowski,,,,,,,,,,,,,,,,,
"1000154",Temple of Honos,Honor,temple,ad Portam Capenam,Rome,IT,,,,,"-233",-232-209,"-232","-209","-3","-205","1000038",,F,July 17,concept,Roman,,no,Ziolkowski,,,,,,,,,,,,,,,,,
"1000155",Portonaccio Temple,Apollo,temple,,Veii,IT,42.021223,12.390661,"97",E,,"-510",,,"-6",,,,M,,god,Etruscan,,yes,,,,"23458",,,,,,,,,,,,420124SPoA,,
"1000156",Great Chesterford Temple,,temple,,,UK,52.07048,0.208052084,,,,,,,,,,,,,,Romano-Celtic,,,The Rural Settlement of Roman Britain,,,,,,,,,,,,,"1002",,,,
"1000157",Harlow,,temple,,,UK,51.79013,0.127076484,,,,,,,,,,,,,,Romano-Celtic,,,The Rural Settlement of Roman Britain,,,,,,,,,,,,,"1045",,,,
"1000158","Gosbecks, Colchester",,temple,,,UK,51.86582,0.856901856,,,,,,,,,,,,,,Romano-Celtic,,,The Rural Settlement of Roman Britain,,,,,,,,,,,,,"1106",,,,
"1000159",Stonea Grange,,temple,,,UK,52.52174,0.134535711,,,,,,,,,,,,,,Romano-Celtic,,,The Rural Settlement of Roman Britain,,,,,,,,,,,,,"2042",,,,
"1000160","Waste Management Park, Waterbeach, Cambridge",,temple,,,UK,52.2972,0.1791583,,,,,,,,,,,,,,Romano-Celtic,,,The Rural Settlement of Roman Britain,,,,,,,,,,,,,"2068",,,,
"1000161",Baldock,,temple,,,UK,51.99054,-0.184278987,,,,,,,,,,,,,,Romano-Celtic,,,The Rural Settlement of Roman Britain,,,,,,,,,,,,,"3012",,,,
"1000162",Wood End Lane/Buncefield Lane,,temple,,,UK,51.7593,-0.433190999,,,,,,,,,,,,,,Romano-Celtic,,,The Rural Settlement of Roman Britain,,,,,,,,,,,,,"3031",,,,
"1000163","Friars Wash, Redbourn",,temple,,,UK,51.81901,-0.404061466,,,,,,,,,,,,,,Romano-Celtic,,,The Rural Settlement of Roman Britain,,,,,,,,,,,,,"3073",,,,
"1000164",Caistor St Edmund temple,,temple,,,UK,52.58692,1.304821414,,,,,,,,,,,,,,Romano-Celtic,,,The Rural Settlement of Roman Britain,,,,,,,,,,,,,"4023",,,,
"1000165","Scole, A143 Scole-Stuston Bypass",,temple,,,UK,52.36266,1.159824025,,,,,,,,,,,,,,Romano-Celtic,,,The Rural Settlement of Roman Britain,,,,,,,,,,,,,"4031",,,,
"1000166","Crownthorpe, Wicklewood",,temple,,,UK,52.58352,1.080879369,,,,,,,,,,,,,,Romano-Celtic,,,The Rural Settlement of Roman Britain,,,,,,,,,,,,,"4083",,,,
"1000167",Lancing Down,,temple,,,UK,50.84807,-0.328010681,,,,,,,,,,,,,,Romano-Celtic,,,The Rural Settlement of Roman Britain,,,,,,,,,,,,,"7006",,,,
"1000168",Greenwich Park,,temple,,,UK,51.48127,0.001558654,,,,,,,,,,,,,,Romano-Celtic,,,The Rural Settlement of Roman Britain,,,,,,,,,,,,,"8036",,,,
"1000169",Lullingstone,,temple,,,UK,51.36418,0.196533335,,,,,,,,,,,,,,Romano-Celtic,,,The Rural Settlement of Roman Britain,,,,,,,,,,,,,"9013",,,,
"1000170","Castle Field, Worth",,temple,,,UK,51.25017,1.3458945,,,,,,,,,,,,,,Romano-Celtic,,,The Rural Settlement of Roman Britain,,,,,,,,,,,,,"9015",,,,
"1000171",Keston,,temple,,,UK,51.3505,0.028999999,,,,,,,,,,,,,,Romano-Celtic,,,The Rural Settlement of Roman Britain,,,,,,,,,,,,,"9016",,,,
"1000172","Springhead, sanctuary complex",,temple,,,UK,51.43066,0.32613761,,,,,,,,,,,,,,Romano-Celtic,,,The Rural Settlement of Roman Britain,,,,,,,,,,,,,"9020",,,,
"1000173","Springhead, roadside settlement",,temple,,,UK,51.4307,0.323981736,,,,,,,,,,,,,,Romano-Celtic,,,The Rural Settlement of Roman Britain,,,,,,,,,,,,,"9021",,,,
"1000174",Thurnham,,temple,,,UK,51.2847,0.579052952,,,,,,,,,,,,,,Romano-Celtic,,,The Rural Settlement of Roman Britain,,,,,,,,,,,,,"9069",,,,
"1000175",Richborough temples,,temple,,,UK,51.28995,1.329420998,,,,,,,,,,,,,,Romano-Celtic,,,The Rural Settlement of Roman Britain,,,,,,,,,,,,,"9106",,,,
"1000176","Boxted, Upchurch",,temple,,,UK,51.36451,0.658099701,,,,,,,,,,,,,,Romano-Celtic,,,The Rural Settlement of Roman Britain,,,,,,,,,,,,,"9126",,,,
"1000177",Farley Heath,,temple,,,UK,51.19389,-0.49751161,,,,,,,,,,,,,,Romano-Celtic,,,The Rural Settlement of Roman Britain,,,,,,,,,,,,,"10005",,,,
"1000178",Wanborough Roman Temple,,temple,,,UK,51.23794,-0.683091189,,,,,,,,,,,,,,Romano-Celtic,,,The Rural Settlement of Roman Britain,,,,,,,,,,,,,"10027",,,,
"1000179","Church Field, Titsey",,temple,,,UK,51.27624,0.035920719,,,,,,,,,,,,,,Romano-Celtic,,,The Rural Settlement of Roman Britain,,,,,,,,,,,,,"10035",,,,
"1000180",Chanctonbury Ring,,temple,,,UK,50.89682,-0.381227592,,,,,,,,,,,,,,Romano-Celtic,,,The Rural Settlement of Roman Britain,,,,,,,,,,,,,"11012",,,,
"1000181","Broadbridge, Bosham",,temple,,,UK,50.83983,-0.852303555,,,,,,,,,,,,,,Romano-Celtic,,,The Rural Settlement of Roman Britain,,,,,,,,,,,,,"11023",,,,
"1000182","Ratham Mill, Funtington",,temple,,,UK,50.85183,-0.852122691,,,,,,,,,,,,,,Romano-Celtic,,,The Rural Settlement of Roman Britain,,,,,,,,,,,,,"11062",,,,
"1000183",Weycock Hill,,temple,,,UK,51.49345,-0.817544128,,,,,,,,,,,,,,Romano-Celtic,,,The Rural Settlement of Roman Britain,,,,,,,,,,,,,"12055",,,,
"1000184",Bancroft temple-Mausoleum,,temple,,,UK,52.05657,-0.797733369,,,,,,,,,,,,,,Romano-Celtic,,,The Rural Settlement of Roman Britain,,,,,,,,,,,,,"13002",,,,
"1000185",Bourton Grounds temple,,temple,,,UK,51.99158,-0.939216473,,,,,,,,,,,,,,Romano-Celtic,,,The Rural Settlement of Roman Britain,,,,,,,,,,,,,"13039",,,,
"1000186",Chedworth temple,,temple,,,UK,51.81811,-1.91261855,,,,,,,,,,,,,,Romano-Celtic,,,The Rural Settlement of Roman Britain,,,,,,,,,,,,,"14072",,,,
"1000187",Lydney Park,,temple,,,UK,51.72146,-2.557441682,,,,,,,,,,,,,,Romano-Celtic,,,The Rural Settlement of Roman Britain,,,,,,,,,,,,,"14074",,,,
"1000188",Uley,,temple,,,UK,51.69565,-2.306678281,,,,,,,,,,,,,,Romano-Celtic,,,The Rural Settlement of Roman Britain,,,,,,,,,,,,,"14103",,,,
"1000189",Hayling Island temple,,temple,,,UK,50.82193,-0.972536725,,,,,,,,,,,,,,Romano-Celtic,,,The Rural Settlement of Roman Britain,,,,,,,,,,,,,"15044",,,,
"1000190",Sansom's Platt,,temple,,,UK,51.86778,-1.343901034,,,,,,,,,,,,,,Romano-Celtic,,,The Rural Settlement of Roman Britain,,,,,,,,,,,,,"16063",,,,
"1000191",Woodeaton,,temple,,,UK,51.80893,-1.223670327,,,,,,,,,,,,,,Romano-Celtic,,,The Rural Settlement of Roman Britain,,,,,,,,,,,,,"16093",,,,
"1000192",Marcham/Frilford,,temple,,,UK,51.6633,-1.366780827,,,,,,,,,,,,,,Romano-Celtic,,,The Rural Settlement of Roman Britain,,,,,,,,,,,,,"16099",,,,
"1000193",Nettleton,,temple,,,UK,51.49076,-2.257769643,,,,,,,,,,,,,,Romano-Celtic,,,The Rural Settlement of Roman Britain,,,,,,,,,,,,,"17001",,,,
"1000194",Badbury Romano-Celtic temple,,temple,,,UK,50.82652,-2.057591749,,,,,,,,,,,,,,Romano-Celtic,,,The Rural Settlement of Roman Britain,,,,,,,,,,,,,"20014",,,,
"1000195",Maiden Castle,,temple,,,UK,50.69488,-2.46999813,,,,,,,,,,,,,,Romano-Celtic,,,The Rural Settlement of Roman Britain,,,,,,,,,,,,,"20035",,,,
"1000196",Poundbury,,temple,,,UK,50.71896,-2.451285648,,,,,,,,,,,,,,Romano-Celtic,,,The Rural Settlement of Roman Britain,,,,,,,,,,,,,"20060",,,,
"1000197",Jordan Hill,,temple,,,UK,50.63755,-2.427115997,,,,,,,,,,,,,,Romano-Celtic,,,The Rural Settlement of Roman Britain,,,,,,,,,,,,,"20079",,,,
"1000198",Brean Down,,temple,,,UK,51.32421,-3.015511638,,,,,,,,,,,,,,Romano-Celtic,,,The Rural Settlement of Roman Britain,,,,,,,,,,,,,"21004",,,,
"1000199",Henley Wood,,temple,,,UK,51.3831,-2.801914168,,,,,,,,,,,,,,Romano-Celtic,,,The Rural Settlement of Roman Britain,,,,,,,,,,,,,"21047",,,,
"1000200","Pagans Hill, Chew Stoke",,temple,,,UK,51.36073,-2.637358019,,,,,,,,,,,,,,Romano-Celtic,,,The Rural Settlement of Roman Britain,,,,,,,,,,,,,"21106",,,,
"1000201",Lamyatt Beacon,,temple,,,UK,51.12394,-2.473626892,,,,,,,,,,,,,,Romano-Celtic,,,The Rural Settlement of Roman Britain,,,,,,,,,,,,,"21127",,,,
"1000202","Redhill, Ratcliffe on Soar",,temple,,,UK,52.86942,-1.269562233,,,,,,,,,,,,,,Romano-Celtic,,,The Rural Settlement of Roman Britain,,,,,,,,,,,,,"25035",,,,
"1000203",Cosgrove,,temple,,,UK,52.07176,-0.841971487,,,,,,,,,,,,,,Romano-Celtic,,,The Rural Settlement of Roman Britain,,,,,,,,,,,,,"26043",,,,
"1000204",Thistleton religious complex/town,,temple,,,UK,52.74453,-0.65474716,,,,,,,,,,,,,,Romano-Celtic,,,The Rural Settlement of Roman Britain,,,,,,,,,,,,,"27005",,,,
"1000205","Grimstock Hill, Coleshill",,temple,,,UK,52.51183,-1.714308514,,,,,,,,,,,,,,Romano-Celtic,,,The Rural Settlement of Roman Britain,,,,,,,,,,,,,"32006",,,,
"1000206",Maryport,,temple,,,UK,54.72287,-3.489841344,,,,,,,,,,,,,,Romano-Celtic,,,The Rural Settlement of Roman Britain,,,,,,,,,,,,,"41043",,,,
"1000207",Great Bulmore,,temple,,,UK,51.61875,-2.927248119,,,,,,,,,,,,,,Romano-Celtic,,,The Rural Settlement of Roman Britain,,,,,,,,,,,,,"43021",,,,
"1000208",Caersws Vicus 84-93,,temple,,,UK,52.5169,-3.428691514,,,,,,,,,,,,,,Romano-Celtic,,,The Rural Settlement of Roman Britain,,,,,,,,,,,,,"45019",,,,
"1000209",Temple of Saturn,Saturn,temple,,Dougga,TN,36.42555,9.22063,"109",E,,,,,,,,,M,,god,Roman,,,,,,"11588",,,,,,,,,,,,,,
"1000210",Temple of Saturn,Saturn,temple,,Thuburbo Majus,TN,36.400753,9.907412,"132",SE,,,,,,,,,M,,god,Roman,,,,,,"31251",,,,,,,,,,,,,,
"1000211",Temple of Saturn,Saturn,temple,,Tiddis,DZ,36.463333,6.483889,"75",E,,,,,,,,,M,,god,Roman,,,,,,,,,,,,,,,,,,,,
"1000212",Temple of Hercules,Hercules,temple,,Amman,JO,31.9538,35.9349,"76",E,,,"162",,"2","166",,,M,,hero,Roman,,,Wikipedia,,,,,,,,Temple_of_Hercules_(Amman),,,,,,,,,
"1000213",Temple of Herakles,Hercules,temple,,Agrigento,IT,37.290252,13.586221,"89",E,,,,,"-6",,,,M,,hero,Greek,,Yes,Wikipedia,,,,,,,,"Temple_of_Heracles,_Agrigento",,,,,,,,,
"1000214",Temple of Hera Lakinia,Juno,temple,,Agrigento,IT,37.288662,13.600197,"82",E,,ca. 450 BCE,,,"-5",,,,F,,god,Greek,,Yes,Wikipedia,,,,,,,,"Temple_of_Juno,_Agrigento",,,,,,,,,
"1000215",Temple of Concord,,temple,,Agrigento,IT,37.289747,13.592005,"89",E,,ca. 440-430 BCE,,,"-5",,,,,,concept,Greek,,Yes,Wikipedia,,,,,,,,"Temple_of_Concordia,_Agrigento",,,,,,,,,
"1000216",Temple of Asclepius,,temple,,Agrigento,IT,37.282531,13.589582,"89",E,,late 5th c. BCE,,,"-5",,,,,,hero,Greek,,Yes,Wikipedia,,,,,,,,Valle_dei_Templi,,,,,,,,,
"1000217",Temple of Olympian Zeus,Jupiter,temple,,Agrigento,IT,37.290982,13.584423,"77",E,,5th c. BCE,,,"-5",,,,M,,god,Greek,,Yes,Wikipedia,,,,,,,,"Temple_of_Olympian_Zeus,_Agrigento",,,,,,,,,
"1000218",Temple of Hephaistos,Vulcan,temple,,Agrigento,IT,37.292956,13.578769,"86",E,,ca. 430 BCE,,,"-6",,,,M,,god,Greek,,Yes,Wikipedia,,,,,,,,Valle_dei_Templi,,,,,,,,,
"1000219",Sacellum,,temple,,Agrigento,IT,37.292956,13.578769,"82",E,,ca. 530-520 BCE,,,"-7",,,,,,,Greek,,Yes,Wikipedia,,,,,,,,Valle_dei_Templi,,,,,,,,,
"1000220",Temple of the Dioscuri,,temple,,Agrigento,IT,37.291344,13.581507,"83",E,,mid-5th c. BCE,,,"-5",,,,,,hero,Greek,,Yes,Wikipedia,,,,,,,,Valle_dei_Templi,,,,,,,,,
"1000221",Temple L,,temple,,Agrigento,IT,37.291043,13.581401,"77",E,,late 5th c. BCE,,,"-5",,,,,,,Greek,,Yes,,,,,,,,,,,,,,,,,,
"1000222",Temple of Demeter,,temple,,Agrigento,IT,37.299241,13.603379,"123",SE,,ca. 480-470 BCE,,,"-5",,,,,,god,Greek,,Yes,,,,,,,,,,,,,,,,,,
"1000223",Temple of Isis,,temple,,Agrigento,IT,37.298272,13.589222,"167",S,,late 1st c. BCE,,,"-1",,,,,,god,Roman,,Yes,,,,,,,,,,,,,,,,,,
"1000224",Temple of Poseidon,Neptune,temple,,Sounion,GR,37.650153,24.024573,"103",E,,444-440 BCE,,,"-5",,,,M,,god,Greek,,Yes,Wikipedia,,,,,,,,Temple_of_Poseidon_at_Sounion,Q49819204,,,,,,377240SSou,,
"1000225",Temple of Athena,Minerva,temple,,Sounion,GR,37.652933,24.027015,"98",E,,470 BCE,,,"-5",1st c. CE,,,F,,god,Greek,,Yes,,,,,,,,,,Q24204542,,,,,,377240SAth,,
"1000226",Heroon of Phrontis,Phrontis,temple,,Sounion,GR,37.653068,24.02716,"102",E,,5th c. BCE,,,"-5",,,,M,,hero,Greek,,Yes,,,,,,,,,,,,,,,,,,
"1000227",Capitolium,"Jupiter, Juno, Minerva",temple,,Terracina,IT,41.29215,13.248628,"224",SW,,,,,,,,,M/F,,god,Roman,,Yes,Wikipedia,,,,,,,,,,,,,,,,,
"1000228",Church of San Cesareo,,temple,,Terracina,IT,41.291923,13.248411,"132",SE,,,,,,,,,,,,Roman,,Yes,PECS,,,,,,,,,,,,,,,,,
"1000229",Temple of Apollo,Apollo,temple,,Pompeii,IT,40.74921,14.4844,,,,,,,,,,,M,,god,,,,Vici.org,,,"4349",,,,,Temple_of_Apollo_(Pompeii),Q2699249,,,,,,,,
"1000230",Temple of Bellona,Bellona,temple,,Ostia,IT,41.752632,12.291518,"292",W,,117-138,"117","138","2",,,,F,,god,Roman,,,Vici.org,,,"4380",,,,,"Temple_of_Bellona,_Ostia",Q3983235,,,,,,,https://www.ostia-antica.org/regio4/1/1-4.htm,yes
"1000231",Tharros,,temple,,San Giovanni di Sinis,IT,39.873825,8.440263,,,,,,,,,,,,,,,,,Vici.org,,,"7846",,,,,,,,,,,,,,no
"1000232",Temple of Juno,Juno,temple,,Gabii,IT,41.887016,12.71593,,,,,,,,,,,,,god,,,,Vici.org,,,"7912",,,,,,,,,,,,,,no
"1000233",Temple of Antas,,temple,,Fluminimaggiore,IT,39.394028,8.500288,,,,,,,,,,,,,,Punic,,,Vici.org,,,"8129",,,,,,,,,,,,394085SAdd,,no
"1000234",Punico-Roman Temple,,temple,,Cagliari,IT,39.222012,9.106047,,,,,,,,,,,,,,,,,Vici.org,,,"8476",,,,,,,,,,,,,,no
"1000235",Capitolium,"Jupiter, Juno, Minerva",temple,,Brescia,IT,45.539905,10.225802,,,,,,,,,,,,,god,,,,Vici.org,,Built by Vespasian in AD 73,"8480",,,,,Capitolium_of_Brixia,Q3657072,,,,,,,,no
"1000236",Temple of Jupiter,Jupiter,temple,,Bidoni,IT,40.121441,8.94209,,,,,,,,,,,,,god,,,,Vici.org,,,"8492",,,,,,,,,,,,,,no
"1000237",Temple at Bovianum Vetus,,temple,,Pietrabbondante,IT,41.73999,14.386793,,,,,,,,,,,,,,,,,Vici.org,,,"10919",,,,,,,,,,,,,,no
"1000238",Temple of Hera Lacinia,Hera,temple,,,IT,39.02651,17.204949,,,,,,,,,,,,,god,,,,Vici.org,,,"10966",,,,,,,,,,,,,,no
"1000239",Temple complex,,temple,,Metapontum,IT,40.383694,16.823549,,,,,,,,,,,,,,,,,Vici.org,,,"11201",,,,,,,,,,,,,,no
"1000240",Temple of Venus Erycina,Venus,temple,,Segesta,IT,37.941475,12.832296,,,,,,,,,,,F,,god,,,,Vici.org,,,"11596",,,,place/segesta/segesta-temple,,,,,,,,,,no
"1000241",Temple of Diana,,temple,,Aricia,IT,41.723934,12.710217,,,,,,,,,,,,,god,,,,Vici.org,,,"11609",,,,place/aricia,,,,,,,,417127SDiN,,no
"1000242",Western forum temple,,temple,,Carsulae,IT,42.639541,12.557359,"5",N,,,,,,,,,,,,Roman,,Yes,,,,"11625","721328707",,,,,,,,,,,,,yes
"1000243",Acropolis,,temple,,Populonia,IT,42.988754,10.5092,,,,,,,,,,,,,,,,,Vici.org,,,"11649",,,,,,,,,,,,,,no
"1000244",Temple of Fortuna,Fortuna,temple,,Palestrina,IT,41.838009,12.89152,,,,,,,,,,,,,concept,,,,Vici.org,,,"11650",,,,,Palestrina#Sanctuary_of_Fortuna_Primigenia,,,,,,,,,no
"1000245",Temple of Minerva,Minerva,temple,,Assisi,IT,43.071224,12.614974,"211",SW,,,,,,,,,F,,god,Roman,,Yes,Vici.org,,,"11658",,,,,"Temple_of_Minerva,_Assisi",Q11836,,,,,,,,yes
"1000246",Temple of Athena,Athena,temple,,Syracuse,IT,37.05965,15.29354,,,,,,,,,,,,,god,Greek,,,Vici.org,,Part of the structure is incorporated in Siracusa Cathedral,"11869",,,,,,,,,,,,,,no
"1000247",Temple of Apollo,Apollo,temple,,Syracuse,IT,37.063938,15.29297,,,,,,,,,,,M,,god,Greek,,,Vici.org,,,"11870",,,,,,,,,,,,,,no
"1000248",Temple of Diana Nemorensis,Diana,temple,,Alberese,IT,42.672871,11.05109,,,,,,,,,,,F,,god,Roman,,,Vici.org,,,"11973","422917","22227",,,Temple_of_Diana_(Nemi),Q18590113,,,,,,417127SDiN,,no
"1000249","Temple of Venus, Baiae",Venus,temple,,Bacoli,IT,40.816093,14.071485,,,,,,,,,,,F,,god,,,,Vici.org,,,"13916",,,,,,,,,,,,,,no
"1000250","Temple of Diana, Baiae",Diana,temple,,Bacoli,IT,40.819092,14.070563,,,,,,,,,,,,,god,,,,Vici.org,,,"13917",,,,,,,,,,,,,,no
"1000251",Temple of Jupiter,Jupiter,temple,,Cumae,IT,40.849385,14.051347,"91",E,,,,,,,,,,,god,,,,Vici.org,,,"14781",,,,,,,,,,,,,,
"1000252",Temple of Apollo,Apollo,temple,,Cumae,IT,40.848538,14.053502,"42",NE,,,,,,,,,M,,god,,,,Vici.org,,,"14782",,,,,,,,,,,,,,
"1000253",Temple of Apollo,Apollo,temple,,Avernus,IT,40.839336,14.082209,,,,,,,,,,,M,,god,,,,Vici.org,,Lake Avernus was seen as an entrance to Hades,"16310",,,,,,,,,,,,,,no
"1000254",Temple of Hera,Hera,temple,,Paestum,IT,40.419327,15.005457,,,,,,,,,,,,,god,,,,Vici.org,,,"16774",,,,,,,,,,,,,,no
"1000255",Temple of Hera,Hera,temple,,Paestum,IT,40.419971,15.005339,,,,,,,,,,,,,god,,,,Vici.org,,,"16775",,,,,,,,,,,,,,no
"1000256",Sanctuary of Minerva,Minerva,temple,,Breno,IT,45.954277,10.284884,,,,,,,,,,,F,,god,,,,Vici.org,,,"17499",,,,,,,,,,,,,,no
"1000257",Temple A,,temple,,Grumentum,IT,40.283569,15.905277,,,,,,,,,,,,,,,,,Vici.org,,,"17600",,,,,,,,,,,,,,no
"1000258",Temple B,,temple,,Grumentum,IT,40.283955,15.906185,,,,,,,,,,,,,,,,,Vici.org,,,"17601",,,,,,,,,,,,,,no
"1000259",Temple C,,temple,,Grumentum,IT,40.285255,15.906856,,,,,,,,,,,,,,,,,Vici.org,,,"17602",,,,,,,,,,,,,,no
"1000260",Temple D,,temple,,Grumentum,IT,40.285954,15.907481,,,,,,,,,,,,,,,,,Vici.org,,,"17603",,,,,,,,,,,,,,no
"1000261",Oratorio di Falaride,,temple,,Agrigento,IT,37.296696,13.58861,,,,,,,,,,,,,,,,,Vici.org,,,"17664",,,,,,,,,,,,,,no
"1000262",Temple of Demeter,Demeter,temple,,Terraseo,IT,39.20137,8.635581,,,,,,,,,,,,,god,,,,Vici.org,,,"17725",,,,,,,,,,,,392863STer,,no
"1000263",Temple of Victory,Victory,temple,,Himera,IT,37.973946,13.82408,,,,,,,,,,,,,concept,,,,Vici.org,,,"17910",,,,battle/himera-480-bce,Temple_of_Victory_%28Himera%29,,,,,,,,,no
"1000264",Capitolium,"Jupiter, Juno, Minerva",temple,,Ostia,IT,41.754478,12.28806,"150",SE,,,,,,,,,M/F,,god,Roman,,,Vici.org,,,"17919",,,,,,,,,,,,,,no
"1000265",Nymphaeum,Nymphs,temple,,Ostia,IT,41.757095,12.295577,,,,,,,,,,,F,,god,Roman,,,Vici.org,,,"17927",,,,,,,,,,,,,,no
"1000266",Temple of Rome and Augustus,"Rome, Augustus",temple,,Ostia,IT,41.753574,12.288665,"329",NW,,Tiberius,"14","37","1",,,,M/F,,"city,emperor",Roman,,yes,Vici.org,,,"17928",,,,,,,,,,,,,https://www.ostia-antica.org/regio1/forum/temprom.htm,yes
"1000267",Temple 'C',,temple,,Selinunte,IT,37.583237,12.825288,,,,,,,,,,,,,,,,,Vici.org,,,"17972",,,,,,,,,,,,,,no
"1000268",Temple 'A',,temple,,Selinunte,IT,37.582607,12.825358,,,,,,,,,,,,,,,,,Vici.org,,,"17974",,,,,,,,,,,,,,no
"1000269",Temple 'B',,temple,,Selinunte,IT,37.58292,12.825808,,,,,,,,,,,,,,,,,Vici.org,,,"17975",,,,,,,,,,,,,,no
"1000270",Temple 'D',,temple,,Selinunte,IT,37.583687,12.825046,,,,,,,,,,,,,,,,,Vici.org,,,"17976",,,,,,,,,,,,,,no
"1000271",Temple 'E',,temple,,Selinunte,IT,37.586716,12.834885,,,,,,,,,,,,,,,,,Vici.org,,,"17977",,,,,,,,,,,,,,no
"1000272",Temple 'F',,temple,,Selinunte,IT,37.587337,12.834879,,,,,,,,,,,,,,,,,Vici.org,,,"17978",,,,,,,,,,,,,,no
"1000273",Temple 'G',,temple,,Selinunte,IT,37.588314,12.834987,,,,,,,,,,,,,,,,,Vici.org,,,"17979",,,,,,,,,,,,,,no
"1000274",Sanctuary of Demeter Malophorus,Demeter,temple,,Selinunte,IT,37.586945,12.817137,,,,,,,,,,,,,god,,,,Vici.org,,,"17980",,,,,,,,,,,,,,no
"1000275",Greek temple,,temple,,Taranto,IT,40.473709,17.233036,,,,,,,,,,,,,,,,,Vici.org,,,"17981",,,,,,,,,,,,,,no
"1000276",Temple of Venus,Venus,temple,,Tivoli,IT,41.944672,12.774768,,,,,,,,,,,F,,god,,,,Vici.org,,,"17984",,,,,,,,,,,,,,no
"1000277",Temple of Demeter,Demeter,temple,,Palazzolo Acreide,IT,37.057495,14.89367,,,,,,,,,,,,,god,,,,Vici.org,,"Temple of Demeter, Acrae","17988",,,,,,,,,,,,,,no
"1000278",Sanctuary,Hera,temple,,Locri Epizephiri,IT,38.211281,16.238371,,,,,,,,,,,,,,,,,Vici.org,,,"17993",,,,,,,,,,,,,,no
"1000279",Tavole Palatine,Hera,temple,,Tavole Palatine,IT,40.416199,16.816666,,,,,,,,,,,F,,god,Greek,,,Vici.org,,,"17996","442611","21308",,,Tavole_Palatine,Q3981620,,,,,,404168SHer,,no
"1000280",Temple 'A',,temple,,Pyrgi,IT,42.015289,11.963535,,,,,,,,,,,,,,,,,Vici.org,,,"17997",,,,,,,,,,,,,,no
"1000281",Temple 'B',,temple,,Pyrgi,IT,42.015129,11.963889,,,,,,,,,,,,,,,,,Vici.org,,,"17998",,,,,,,,,,,,,,no
"1000282",Sanctuary of Apollo,,temple,,Pyrgi,IT,42.014652,11.964618,,,,,,,,,,,M,,god,,,,Vici.org,,,"17999",,,,,,,,,,,,,,no
"1000283",Temple of Venus Erycina,,temple,,Erice,IT,38.036556,12.583742,,,,,,,,,,,F,,god,,,,Vici.org,,,"18316",,,,place/eryx,,,,,,,,,,no
"1000284",Talamonaccio,,temple,,,IT,42.551804,11.169796,,,,,,,,,,,,,,,,,Vici.org,,Etruscan/Roman temple,"18371",,,,,,,,,,,,426112STal,,no
"1000285",Cult Site,,temple,,Monte S. Martino,IT,45.917473,10.817933,,,,,,,,,,,,,,,,,Vici.org,,Luogo die culto preromano e romano,"18758",,,,,,,,,,,,,,no
"1000286",Temple of Clitumnus,,temple,,Pissignano,IT,42.842201,12.7569,,,,,,,,,,,,,,,,,Vici.org,,,"19791",,,,,,,,,,,,,,no
"1000287",Temple of Flora,,temple,,,IT,41.305756,14.562722,,,,,,,,,,,F,,concept,,,,Vici.org,,,"19792",,,,,,Q3983249,,,,,,,,no
"1000288",Temple of the Dioscuri,,temple,,Napoli,IT,40.85144,14.25683,,,,,,,,,,,,,hero,,,,Vici.org,,,"19793",,,,,,,,,,,,,,no
"1000289",Diana Tifatina,,temple,,Sant'Angelo In Formis,IT,41.118294,14.260515,,,,,,,,,,,,,god,,,,Vici.org,,,"19794","432813","22559",,,,,,,,,,,,no
"1000290",Temple,,temple,,Bevagna,IT,42.934608,12.609744,,,,,,,,,,,,,,,,,Vici.org,,,"19799",,,,,,,,,,,,,,no
"1000291",Temple Peltuinum,,temple,,,IT,42.283485,13.623908,,,,,,,,,,,,,,,,,Vici.org,,,"20380",,,,,,,,,,,,,,no
"1000292",Casentino - Chiesa di Pieve a Socano,,temple,,Castel Focognano,IT,43.652519,11.787855,,,,,,,,,,,,,,,,,Vici.org,,Etruscan sanctuary,"20522",,,,,,,,,,,,,,no
"1000293",Large Temple,,temple,,Luna,IT,44.065861,10.01729,"205",SW,,,,,,,,,,,,,,,Vici.org,,,"22164",,,,,,,,,,,,,,
"1000294",Sanctuary of the Lake of the Idols,,temple,,,IT,43.866669,11.683333,,,,,,,,,,,,,,Etruscan,,,Vici.org,,Lago degli Idoli,"22684",,,,,,,,,,,,,,no
"1000295",Montemignaio,,temple,,La Pieve-molino,IT,43.740524,11.621438,,,,,,,,,,,,,,,,,Vici.org,,"Esp. beautifull are the capitals on the pillars, made by local and Lombard artrist - workers","22686",,,,,,,,,,,,,,no
"1000296",Temple of Athena,,temple,,Paestum,IT,40.42453,15.005402,,,,,,,,,,,,,god,,,,Vici.org,,,"23309",,,,,,,,,,,,,,no
"1000297",Temple of Diana,,temple,,Cefal√∫,IT,38.038563,14.02475,,,,,,,,,,,,,god,,,,Vici.org,,,"23670",,,,,,,,,,,,,,no
"1000298",Large Temple,,temple,,Vulci,IT,42.419655,11.62843,,,,,,,,,,,,,,Etruscan,,,Vici.org,,,"23894",,,,,,,,,,,,,,no
"1000299",Temple of Hercules,,temple,,Vulci,IT,42.418175,11.631992,,,,,,,,,,,,,hero,Etruscan,,,Vici.org,,Small temple (sacellum) dedicated to Hercules,"23895",,,,,,,,,,,,,,no
"1000300",Etrusco-Roman temple complex,,temple,,Fiesole,IT,43.808475,11.292941,,,,,,,,,,,,,,,,,Vici.org,,,"24190",,,,,,,,,,,,,,no
"1000301",Asclepieion,,temple,,Heloros,IT,36.841862,15.105948,,,,,,,,,,,M,,hero,,,,Vici.org,,,"24464",,,,,,,,,,,,,,no
"1000302",Temple of Jupiter,,temple,,Tusculum,IT,41.798317,12.704335,,,,,,,,,,,,,god,,,,Vici.org,,,"24929",,,,,,,,,,,,,,no
"1000303",Megara Hyblaea,,temple,,Megara Hyblaea,IT,37.204262,15.175998,,,,,,,,,,,,,,,,,Vici.org,,Extra mural temple,"25276",,,,,,,,,,,,,,no
"1000304",Temple,,temple,,Paestum,IT,40.423512,15.006211,,,,,,,,,,,,,,,,,Vici.org,,Roman Temple - santuario romano,"25323",,,,,,,,,,,,,,no
"1000305",Temple of Peace,,temple,,Paestum,IT,40.421938,15.005541,,,,,,,,,,,,,concept,,,,Vici.org,,,"25325",,,,,,,,,,,,,,no
"1000306",Agora sanctuary,,temple,,Morgantina,IT,37.430794,14.479367,,,,,,,,,,,,,,,,,Vici.org,,,"25516",,,,,,,,,,,,,,no
"1000307",Temple of Demeter and Kore,,temple,,Morgantina,IT,37.43034,14.479649,,,,,,,,,,,,,god,,,,Vici.org,,"Morgantia, Murgantia and Morgantium - temple","25518",,,,,,,,,,,,,,no
"1000308",Citadel,,temple,,Morgantina,IT,37.437569,14.48876,,,,,,,,,,,,,,,,,Vici.org,,Ruins of a temple,"25626",,,,,,,,,,,,,,no
"1000309",Rock of Ceres,,temple,,Enna,IT,37.569225,14.289181,,,,,,,,,,,,,,,,,Vici.org,,Rock shrine of Demeter - Ceres.Rocca di Cerere,"25627",,,,,,,,,,,,,,no
"1000310",Templi Ferali,,temple,,Acrae,IT,37.05713,14.895352,,,,,,,,,,,,,hero,,,,Vici.org,,Heroon. Temple dedicated to the cult of the dead heroes,"25686",,,,,,,,,,,,,,no
"1000311",Temple,,temple,,Kasmenai - Casmenae,IT,37.076412,14.82563,,,,,,,,,,,,,,Greek,,,Vici.org,,Temple pre Kasmenai,"25689",,,,,,,,,,,,371148SKas,,no
"1000312",Kasmenai - Casmenae,,temple,,,IT,37.076519,14.826977,,,,,,,,,,,,,,,,,Vici.org,,Temple,"25690",,,,,,,,,,,,,,no
"1000313",Temple of Hercules,Hercules,temple,,Ostia,IT,41.753782,12.286157,"76",E,,4th qu. 2nd - 1st qu. 1st c. BCE,"-124","-75","-2",,,,M,,hero,Roman,,yes,Vici.org,,,"27354",,,,,,,,,,,,,http://www.ostia-antica.org/regio1/15/15-5.htm,yes
"1000314",Serapeum,Serapis,temple,,Ostia,IT,41.753315,12.283876,,,,,,,,,,,M,,hero,,,,Vici.org,,,"27355",,,,,,,,,,,,,http://www.ostia-antica.org/regio3/17/17-4.htm,no
,,,,,,,,,,,,,,,,,,,,,,,,,,,,,,,,,,,,,,,,,,
